code,name,campus,location_name,address,lon,lat,city,town,education_stage
11601,私立育才國小,校本部校區,私立育才國小_校本部校區,234 新北市永和區福和路125巷20號,121.5216446,25.007061,新北市,永和區,國小
11602,私立聖心國小,校本部校區,私立聖心國小_校本部校區,新北市八里區龍米路一段261號,121.4503708,25.13421631,新北市,八里區,國小
11603,私立及人國小,校本部校區,私立及人國小_校本部校區,新北市永和區文化路172號,121.5120392,25.01566505,新北市,永和區,國小
11604,私立竹林國小,校本部校區,私立竹林國小_校本部校區,新北市永和區竹林路34號,121.5173111,25.01449203,新北市,永和區,國小
11606,私立信賢種籽親子實小,校本部校區,私立信賢種籽親子實小_校本部校區,新北市烏來區信賢里娃娃谷41號,121.5286407,24.83901215,新北市,烏來區,國小
13601,市立北大國小,三峽區校區,市立北大國小_三峽區校區,新北市三峽區國光街100號,121.3732376,24.93884087,新北市,三峽區,國小
13602,市立新林國小,校本部校區,市立新林國小_校本部校區,新北市林口區三民路、忠孝三路、文明街及井泉街,121.3606873,25.07115936,新北市,林口區,國小
14601,市立板橋國小,校本部校區,市立板橋國小_校本部校區,新北市板橋區黃石里文化路一段23號,121.4582367,25.01086044,新北市,板橋區,國小
14602,市立國光國小,校本部校區,市立國光國小_校本部校區,新北市板橋區中正路325巷30號,121.4533463,25.01942062,新北市,板橋區,國小
14603,市立新埔國小,校本部校區,市立新埔國小_校本部校區,新北市板橋區新翠里陽明街206號,121.4625931,25.02588272,新北市,板橋區,國小
14604,市立埔墘國小,校本部校區,市立埔墘國小_校本部校區,新北市板橋區永豐街42之8號,121.4744492,25.01867676,新北市,板橋區,國小
14605,市立莒光國小,校本部校區,市立莒光國小_校本部校區,新北市板橋區華翠里莒光路163號,121.4736252,25.02611351,新北市,板橋區,國小
14606,市立後埔國小,校本部校區,市立後埔國小_校本部校區,新北市板橋區重慶路157號,121.4626999,25.00334549,新北市,板橋區,國小
14607,市立海山國小,校本部校區,市立海山國小_校本部校區,新北市板橋區漢生東路280號,121.4703598,25.00926208,新北市,板橋區,國小
14608,市立江翠國小,校本部校區,市立江翠國小_校本部校區,新北市板橋區松翠里文化路二段413號,121.4741592,25.03237343,新北市,板橋區,國小
14610,市立文聖國小,校本部校區,市立文聖國小_校本部校區,新北市板橋區文聖街86號,121.4771729,25.02950096,新北市,板橋區,國小
14611,市立沙崙國小,校本部校區,市立沙崙國小_校本部校區,新北市板橋區篤行路二段132號,121.4305344,24.989748,新北市,板橋區,國小
14612,市立文德國小,校本部校區,市立文德國小_校本部校區,板橋區英士路179號,121.4585037,25.02251053,新北市,板橋區,國小
14613,市立樹林國小,校本部校區,市立樹林國小_校本部校區,新北市樹林區育英街176號,121.4178314,24.98942757,新北市,樹林區,國小
14614,市立文林國小,校本部校區,市立文林國小_校本部校區,新北市樹林區潭底里千歲街59號,121.4261017,24.9975071,新北市,樹林區,國小
14615,市立大同國小,校本部校區,市立大同國小_校本部校區,新北市樹林區大同街43號,121.4175186,24.98130989,新北市,樹林區,國小
14616,市立武林國小,校本部校區,市立武林國小_校本部校區,新北市樹林區保安街二段151號,121.4153595,25.00164604,新北市,樹林區,國小
14617,市立山佳國小,校本部校區,市立山佳國小_校本部校區,新北市樹林區中山路三段5號,121.4017487,24.97551918,新北市,樹林區,國小
14618,市立育德國小,校本部校區,市立育德國小_校本部校區,新北市樹林區中山里佳園路一段34號,121.3925018,24.97089386,新北市,樹林區,國小
14618,市立育德國小,樹林區育德國小,市立育德國小_樹林區育德國小,新北市樹林區中山里佳園路一段34號,121.3925018,24.97087288,新北市,樹林區,國小
14619,市立柑園國小,校本部校區,市立柑園國小_校本部校區,新北市樹林區柑園街一段353號,121.3894882,24.95574379,新北市,樹林區,國小
14620,市立鶯歌國小,校本部校區,市立鶯歌國小_校本部校區,新北市鶯歌區同慶里尖山埔路106號,121.3457642,24.95118141,新北市,鶯歌區,國小
14620,市立鶯歌國小,校園平面圖,市立鶯歌國小_校園平面圖,新北市鶯歌區同慶里尖山埔路106號,121.3461685,24.95104408,新北市,鶯歌區,國小
14621,市立二橋國小,校本部校區,市立二橋國小_校本部校區,新北市鶯歌區二橋里中正三路106號,121.3376312,24.94087219,新北市,鶯歌區,國小
14622,市立中湖國小,校本部校區,市立中湖國小_校本部校區,新北市鶯歌區中湖里中湖街25號,121.3480988,24.9729805,新北市,鶯歌區,國小
14623,市立鳳鳴國小,校本部校區,市立鳳鳴國小_校本部校區,新北市鶯歌區鳳鳴里永和街120號,121.3350525,24.9691391,新北市,鶯歌區,國小
14624,市立三峽國小,校本部校區,市立三峽國小_校本部校區,新北市三峽區中山路16號,121.3685379,24.93528366,新北市,三峽區,國小
14625,市立大埔國小,校本部校區,市立大埔國小_校本部校區,新北市三峽區大埔路130號,121.3664627,24.90574265,新北市,三峽區,國小
14626,市立民義國小,校本部校區,市立民義國小_校本部校區,新北市三峽區嘉添里白雞路40號,121.3751526,24.91143227,新北市,三峽區,國小
14627,市立成福國小,校本部校區,市立成福國小_校本部校區,新北市三峽區溪東路213號,121.4056854,24.93320274,新北市,三峽區,國小
14628,市立大成國小,校本部校區,市立大成國小_校本部校區,新北市三峽區成福路251巷2號,121.4277725,24.92456245,新北市,三峽區,國小
14629,市立建安國小,校本部校區,市立建安國小_校本部校區,新北市三峽區安坑里建安路67號,121.4468079,24.92622185,新北市,三峽區,國小
14630,市立插角國小,校本部校區,市立插角國小_校本部校區,新北市三峽區插角里插角路39號,121.4052277,24.87235069,新北市,三峽區,國小
14630,市立插角國小,金敏校區,市立插角國小_金敏校區,新北市三峽區插角里插角路39號,121.3845139,24.87427139,新北市,三峽區,國小
14631,市立有木國小,校本部校區,市立有木國小_校本部校區,新北市三峽區有木里131號,121.4371262,24.85393333,新北市,三峽區,國小
14632,市立五寮國小,校本部校區,市立五寮國小_校本部校區,新北市三峽區五寮里69號,121.360199,24.85883331,新北市,三峽區,國小
14633,市立中和國小,校本部校區,市立中和國小_校本部校區,新北市中和區中和路100號,121.5016098,24.99986076,新北市,中和區,國小
14633,市立中和國小,中和國小,市立中和國小_中和國小,新北市中和區中和路100號,121.5016098,24.99970627,新北市,中和區,國小
14634,市立復興國小,校本部校區,市立復興國小_校本部校區,新北市中和區復興路301巷6號,121.5019302,24.98964691,新北市,中和區,國小
14635,市立興南國小,校本部校區,市立興南國小_校本部校區,新北市中和區興南路一段134巷24號,121.5091248,24.98673058,新北市,中和區,國小
14636,市立秀山國小,校本部校區,市立秀山國小_校本部校區,新北市中和區立人街2號,121.5211639,24.99422264,新北市,中和區,國小
14637,新北市中和區積穗國民小學,校本部校區,新北市中和區積穗國民小學_校本部校區,23548 新北市中和區員山路154號,121.4813995,24.99905586,新北市,中和區,國小
14638,市立自強國小,校本部校區,市立自強國小_校本部校區,新北市中和區莒光路200號,121.4709244,24.99784851,新北市,中和區,國小
14639,市立錦和國小,校本部校區,市立錦和國小_校本部校區,新北市中和區圓通路292號,121.489418,24.9901886,新北市,中和區,國小
14640,市立景新國小,校本部校區,市立景新國小_校本部校區,新北市中和區景新街467巷37號,121.5149918,24.98929977,新北市,中和區,國小
14641,市立永和國小,校本部校區,市立永和國小_校本部校區,新北市永和區秀朗路一段120號,121.5169907,25.0036087,新北市,永和區,國小
14642,市立秀朗國小,校本部校區,市立秀朗國小_校本部校區,新北市永和區得和路202號,121.5212784,24.99968338,新北市,永和區,國小
14643,市立頂溪國小,校本部校區,市立頂溪國小_校本部校區,新北市永和區文化路133號,121.5115814,25.01551819,新北市,永和區,國小
14644,市立網溪國小,校本部校區,市立網溪國小_校本部校區,新北市永和區竹林路79號,121.5193405,25.01293564,新北市,永和區,國小
14645,市立永平國小,校本部校區,市立永平國小_校本部校區,新北市永和區保生路25號,121.5057144,25.00805473,新北市,永和區,國小
14646,市立土城國小,校本部校區,市立土城國小_校本部校區,新北市土城區興城路17號,121.4419327,24.9723835,新北市,土城區,國小
14647,市立清水國小,校本部校區,市立清水國小_校本部校區,新北市土城區金城路2段356號,121.4615097,24.9844017,新北市,土城區,國小
14648,市立頂埔國小,校本部校區,市立頂埔國小_校本部校區,新北市土城區中央路四段205號,121.4143295,24.95620155,新北市,土城區,國小
14649,市立廣福國小,校本部校區,市立廣福國小_校本部校區,新北市土城區學府路一段127號,121.454895,24.98695183,新北市,土城區,國小
14650,市立汐止國小,校本部校區,市立汐止國小_校本部校區,新北市汐止區大同路二段313號,121.6552505,25.06692123,新北市,汐止區,國小
14651,市立長安國小,校本部校區,市立長安國小_校本部校區,新北市汐止區長興街一段80號,121.6707001,25.07938385,新北市,汐止區,國小
14652,市立保長國小,校本部校區,市立保長國小_校本部校區,新北市汐止區大同路三段553號,121.6811523,25.07186317,新北市,汐止區,國小
14652,市立保長國小,保長國民小學,市立保長國小_保長國民小學,新北市汐止區大同路三段553號,121.6808548,25.07177353,新北市,汐止區,國小
14653,市立崇德國小,校本部校區,市立崇德國小_校本部校區,22172 新北市汐止區茄苳路158號,121.6689987,25.06943321,新北市,汐止區,國小
14654,市立北港國小,校本部校區,市立北港國小_校本部校區,新北市汐止區汐萬路二段279號,121.6450729,25.08914185,新北市,汐止區,國小
14654,市立北港國小,烘內校區,市立北港國小_烘內校區,新北市汐止區汐萬路二段279號,121.644722,25.10527802,新北市,汐止區,國小
14654,市立北港國小,八連校區,市立北港國小_八連校區,新北市汐止區汐萬路二段279號,121.6293335,25.10197258,新北市,汐止區,國小
14655,市立北峰國小,校本部校區,市立北峰國小_校本部校區,新北市汐止區環河街1號,121.6328354,25.06381989,新北市,汐止區,國小
14656,市立東山國小,校本部校區,市立東山國小_校本部校區,新北市汐止區汐平路二段76號,121.6998978,25.05997086,新北市,汐止區,國小
14657,市立白雲國小,校本部校區,市立白雲國小_校本部校區,新北市汐止區福山里民權街二段90號,121.6189041,25.04772758,新北市,汐止區,國小
14658,市立萬里國小,校本部校區,市立萬里國小_校本部校區,新北市萬里區瑪鋉路18號,121.6881866,25.17617416,新北市,萬里區,國小
14659,市立野柳國小,校本部校區,市立野柳國小_校本部校區,新北市萬里區野柳里港東路167號,121.6895447,25.20545006,新北市,萬里區,國小
14660,市立大鵬國小,校本部校區,市立大鵬國小_校本部校區,新北市萬里區大鵬里加投路14號,121.6509476,25.20840645,新北市,萬里區,國小
14661,市立大坪國小,校本部校區,市立大坪國小_校本部校區,新北市萬里區雙興里大坪路1號,121.6387634,25.167202,新北市,萬里區,國小
14662,市立崁腳國小,校本部校區,市立崁腳國小_校本部校區,新北市萬里區崁腳里崁腳路59號,121.6497192,25.16065407,新北市,萬里區,國小
14663,市立金山國小,校本部校區,市立金山國小_校本部校區,20845新北市金山區中山路234號,121.6366425,25.22346878,新北市,金山區,國小
14664,市立中角國小,校本部校區,市立中角國小_校本部校區,新北市金山區海興路49號,121.6305847,25.23975372,新北市,金山區,國小
14665,市立三和國小,校本部校區,市立三和國小_校本部校區,新北市金山區重和里六股林口38號,121.6024704,25.2192688,新北市,金山區,國小
14666,市立新店國小,校本部校區,市立新店國小_校本部校區,新北市新店區新店路2號,121.5393066,24.95327187,新北市,新店區,國小
14667,市立直潭國小,校本部校區,市立直潭國小_校本部校區,新北市新店區直潭路92號,121.5313187,24.93781281,新北市,新店區,國小
14667,市立直潭國小,新北市新店區國小,市立直潭國小_新北市新店區國小,新北市新店區直潭路92號,121.5313187,24.93781471,新北市,新店區,國小
14668,市立青潭國小,校本部校區,市立青潭國小_校本部校區,新北市新店區北宜路二段80號,121.5530167,24.95277023,新北市,新店區,國小
14669,市立雙峰國小,校本部校區,市立雙峰國小_校本部校區,新北市新店區北宜路3段66號,121.5754242,24.95075417,新北市,新店區,國小
14670,市立大豐國小,校本部校區,市立大豐國小_校本部校區,新北市新店區民族路108號,121.5381927,24.97757912,新北市,新店區,國小
14671,市立中正國小,校本部校區,市立中正國小_校本部校區,新北市新店區三民路36號,121.5366364,24.97173691,新北市,新店區,國小
14672,市立安坑國小,校本部校區,市立安坑國小_校本部校區,新北市新店區安忠路36號,121.5141602,24.9613018,新北市,新店區,國小
14673,市立雙城國小,校本部校區,市立雙城國小_校本部校區,新北市新店區安康路三段322號,121.4865417,24.95207024,新北市,新店區,國小
14674,市立屈尺國小,校本部校區,市立屈尺國小_校本部校區,新北市新店區屈尺路55號,121.54673,24.92181587,新北市,新店區,國小
14674,市立屈尺國小,廣興校區,市立屈尺國小_廣興校區,新北市新店區屈尺路55號,121.539093,24.91253662,新北市,新店區,國小
14675,市立龜山國小,校本部校區,市立龜山國小_校本部校區,新北市新店區新烏路三段99巷10號,121.5537109,24.90188217,新北市,新店區,國小
14676,市立深坑國小,校本部校區,市立深坑國小_校本部校區,新北市深坑區深坑里文化街45號,121.6168747,25.00180244,新北市,深坑區,國小
14677,市立石碇國小,文山校區,市立石碇國小_文山校區,新北市石碇區石碇里石碇西街15號,121.6589584,24.99026299,新北市,石碇區,國小
14678,市立和平國小,校本部校區,市立和平國小_校本部校區,22341新北市石碇區隆盛里靜安路1段5號,121.6417236,25.01166153,新北市,石碇區,國小
14679,市立永定國小,校本部校區,市立永定國小_校本部校區,新北市石碇區永定里靜安路一段245號,121.6880035,25.00779533,新北市,石碇區,國小
14680,市立雲海國小,校本部校區,市立雲海國小_校本部校區,新北市石碇區北宜路五段坑內巷1號,121.6371918,24.95312881,新北市,石碇區,國小
14682,市立坪林國小,坪林校區,市立坪林國小_坪林校區,坪林區坪林街114號,121.7110138,24.93630028,新北市,坪林區,國小
14682,市立坪林國小,闊瀨校區,市立坪林國小_闊瀨校區,坪林區坪林街114號,121.7708664,24.96549988,新北市,坪林區,國小
14682,市立坪林國小,漁光校區,市立坪林國小_漁光校區,坪林區坪林街114號,121.7366638,24.96111107,新北市,坪林區,國小
14685,市立福山國小,校本部校區,市立福山國小_校本部校區,新北市烏來區福山里李茂岸56號,121.502182,24.77729607,新北市,烏來區,國小
14686,市立瑞芳國小,校本部校區,市立瑞芳國小_校本部校區,新北市瑞芳區中山路2號,121.8038788,25.10789871,新北市,瑞芳區,國小
14686,市立瑞芳國小,碩仁校區,市立瑞芳國小_碩仁校區,新北市瑞芳區中山路2號,121.8231583,25.06157494,新北市,瑞芳區,國小
14687,市立義方國小,校本部校區,市立義方國小_校本部校區,新北市瑞芳區逢甲路360號,121.8024368,25.11323166,新北市,瑞芳區,國小
14688,市立瑞柑國小,校本部校區,市立瑞柑國小_校本部校區,新北市瑞芳區明燈路一段18巷13號,121.8232269,25.11013985,新北市,瑞芳區,國小
14689,市立瑞濱國小,校本部校區,市立瑞濱國小_校本部校區,新北市瑞芳區瑞濱路34號,121.8201523,25.12062836,新北市,瑞芳區,國小
14690,市立九份國小,校本部校區,市立九份國小_校本部校區,新北市瑞芳區永慶里崙頂路145號,121.8433304,25.10713768,新北市,瑞芳區,國小
14691,市立瓜山國小,校本部校區,市立瓜山國小_校本部校區,新北市瑞芳區石山里五號路306號,121.8569031,25.11094093,新北市,瑞芳區,國小
14692,市立濂洞國小,校本部校區,市立濂洞國小_校本部校區,新北市瑞芳區濂洞里洞頂路101巷80號,121.8600006,25.12234306,新北市,瑞芳區,國小
14693,市立猴硐國小,校本部校區,市立猴硐國小_校本部校區,新北市瑞芳區弓橋里九芎橋路69-1號,121.8333664,25.0955162,新北市,瑞芳區,國小
14693,市立猴硐國小,舊校區,市立猴硐國小_舊校區,新北市瑞芳區弓橋里九芎橋路69-1號,121.8338013,25.09214401,新北市,瑞芳區,國小
14694,市立瑞亭國小,校本部校區,市立瑞亭國小_校本部校區,新北市瑞芳區四腳亭埔路23號,121.7773056,25.10280418,新北市,瑞芳區,國小
14695,市立吉慶國小,校本部校區,市立吉慶國小_校本部校區,新北市瑞芳區吉安里大埔路95號,121.7637253,25.10034752,新北市,瑞芳區,國小
14696,市立鼻頭國小,校本部校區,市立鼻頭國小_校本部校區,新北市瑞芳區鼻頭里鼻頭路99號,121.9193344,25.12131119,新北市,瑞芳區,國小
14697,市立雙溪國小,校本部校區,市立雙溪國小_校本部校區,新北市雙溪區共和里東榮街54號,121.8672028,25.03342438,新北市,雙溪區,國小
14697,市立雙溪國小,雙溪國小-校本部,市立雙溪國小_雙溪國小-校本部,新北市雙溪區共和里東榮街54號,121.8664932,25.03366089,新北市,雙溪區,國小
14698,市立柑林國小,校本部校區,市立柑林國小_校本部校區,新北市雙溪區長源里柑腳3號,121.8045883,25.01516342,新北市,雙溪區,國小
14699,市立上林國小,校本部校區,市立上林國小_校本部校區,新北市雙溪區上林里內平林60號,121.8319702,25.02903366,新北市,雙溪區,國小
14699,市立上林國小,新北市雙溪區上林國民小學,市立上林國小_新北市雙溪區上林國民小學,新北市雙溪區上林里內平林60號,121.8322372,25.02901459,新北市,雙溪區,國小
14700,市立牡丹國小,校本部校區,市立牡丹國小_校本部校區,新北市雙溪區三貂里政光路3號,121.8515701,25.06249428,新北市,雙溪區,國小
14702,市立貢寮國小,校本部校區,市立貢寮國小_校本部校區,新北市貢寮區學苑路7號,121.9151001,25.02204514,新北市,貢寮區,國小
14703,市立福隆國小,校本部校區,市立福隆國小_校本部校區,新北市貢寮區東興街35號,121.9486923,25.01711845,新北市,貢寮區,國小
14704,市立澳底國小,校本部校區,市立澳底國小_校本部校區,新北市貢寮區真理里延平街10號,121.9249725,25.05483246,新北市,貢寮區,國小
14706,市立和美國小,校本部校區,市立和美國小_校本部校區,新北市貢寮區龍洞街1-9號,121.9193344,25.11232758,新北市,貢寮區,國小
14708,市立福連國小,校本部校區,市立福連國小_校本部校區,新北市貢寮區福連里福連街1號,121.988678,25.01620293,新北市,貢寮區,國小
14709,市立平溪國小,校本部校區,市立平溪國小_校本部校區,新北市平溪區平溪街56號,121.7374496,25.02735519,新北市,平溪區,國小
14710,市立菁桐國小,校本部校區,市立菁桐國小_校本部校區,新北市平溪區菁桐街45號,121.726944,25.02316284,新北市,平溪區,國小
14711,市立十分國小,校本部校區,市立十分國小_校本部校區,新北市平溪區十分里十分街157號,121.7779083,25.04375839,新北市,平溪區,國小
14712,市立淡水國小,校本部校區,市立淡水國小_校本部校區,新北市淡水區協元里中山路160號,121.4413605,25.17337608,新北市,淡水區,國小
14713,市立育英國小,埤島里校區,市立育英國小_埤島里校區,新北市淡水區埤島里14號,121.4451141,25.19752312,新北市,淡水區,國小
14714,市立文化國小,校本部校區,市立文化國小_校本部校區,新北市淡水區文化里真理街6號,121.4373779,25.17396545,新北市,淡水區,國小
14715,市立天生國小,校本部校區,市立天生國小_校本部校區,新北市淡水區油車里淡海路72巷26號,121.4242859,25.18156052,新北市,淡水區,國小
14715,市立天生國小,舊校區,市立天生國小_舊校區,新北市淡水區油車里淡海路72巷26號,121.4243011,25.17901993,新北市,淡水區,國小
14716,市立水源國小,校本部校區,市立水源國小_校本部校區,新北市淡水區水源里北新路二段15號,121.4765244,25.18581772,新北市,淡水區,國小
14717,市立興仁國小,校本部校區,市立興仁國小_校本部校區,新北市淡水區興仁路101巷10號,121.4510956,25.21747971,新北市,淡水區,國小
14718,市立忠山國小,校本部校區,市立忠山國小_校本部校區,新北市淡水區行忠路899號,121.4799805,25.20044708,新北市,淡水區,國小
14719,市立屯山國小,校本部校區,市立屯山國小_校本部校區,新北市淡水區淡金路五段111號,121.4563675,25.23734283,新北市,淡水區,國小
14720,市立中泰國小,校本部校區,市立中泰國小_校本部校區,新北市淡水區中和里北勢子5號,121.4846497,25.22405624,新北市,淡水區,國小
14721,市立坪頂國小,校本部校區,市立坪頂國小_校本部校區,新北市淡水區坪頂里坪頂路757號,121.4840088,25.15804291,新北市,淡水區,國小
14722,市立竹圍國小,校本部校區,市立竹圍國小_校本部校區,新北市淡水區中正東路二段145號,121.4610062,25.14776039,新北市,淡水區,國小
14722,市立竹圍國小,自強校區,市立竹圍國小_自強校區,新北市淡水區中正東路二段145號,121.4637833,25.12480927,新北市,淡水區,國小
14723,市立石門國小,石門國小,市立石門國小_石門國小,新北市石門區尖鹿里中央路9號,121.5672531,25.29225731,新北市,石門區,國小
14724,新北市立乾華國小,校本部校區,新北市立乾華國小_校本部校區,新北市石門區茂林里茂林社區74號,121.5923462,25.26926041,新北市,石門區,國小
14725,市立老梅國小,校本部校區,市立老梅國小_校本部校區,新北市石門區老梅里老梅路10號,121.5450668,25.28890991,新北市,石門區,國小
14726,市立三芝國小,校本部校區,市立三芝國小_校本部校區,新北市三芝區埔頭里育英街22號,121.5016327,25.25787926,新北市,三芝區,國小
14727,市立橫山國小,校本部校區,市立橫山國小_校本部校區,新北市三芝區橫山里86號,121.5299301,25.25876427,新北市,三芝區,國小
14728,市立興華國小,校本部校區,市立興華國小_校本部校區,新北市三芝區興華里田心子5號,121.5014114,25.2036953,新北市,三芝區,國小
14729,市立新莊國小,校本部校區,市立新莊國小_校本部校區,新北市新莊區立人里中正路86號,121.4564209,25.03696823,新北市,新莊區,國小
14730,市立中港國小,校本部校區,市立中港國小_校本部校區,新北市新莊區立志里中港一街142號,121.4471664,25.04507065,新北市,新莊區,國小
14731,市立思賢國小,校本部校區,市立思賢國小_校本部校區,新北市新莊區自立街229號,121.4565582,25.04556274,新北市,新莊區,國小
14732,市立頭前國小,校本部校區,市立頭前國小_校本部校區,新北市新莊區頭前里化成路231號,121.4661255,25.05292511,新北市,新莊區,國小
14733,市立國泰國小,校本部校區,市立國泰國小_校本部校區,新北市新莊區中正路386號,121.4417114,25.03417015,新北市,新莊區,國小
14734,市立豐年國小,校本部校區,市立豐年國小_校本部校區,新北市新莊區瓊泰路116號,121.4433289,25.03093147,新北市,新莊區,國小
14735,市立丹鳳國小,校本部校區,市立丹鳳國小_校本部校區,新北市新莊區新北大道7段437號,121.4138184,25.02418518,新北市,新莊區,國小
14736,市立光華國小,校本部校區,市立光華國小_校本部校區,新北市新莊區龍安路452號,121.4256592,25.01755905,新北市,新莊區,國小
14737,市立民安國小,校本部校區,市立民安國小_校本部校區,新北市新莊區民安里民安路261號,121.4277954,25.02163315,新北市,新莊區,國小
14738,市立昌隆國小,校本部校區,市立昌隆國小_校本部校區,新北市新莊區昌隆街63號,121.4554062,25.05140305,新北市,新莊區,國小
14739,市立泰山國小,校本部校區,市立泰山國小_校本部校區,新北市泰山區泰林路二段255號,121.431282,25.06234169,新北市,泰山區,國小
14740,市立明志國小,校本部校區,市立明志國小_校本部校區,新北市泰山區新生路2號,121.4274521,25.04524612,新北市,泰山區,國小
14741,市立成州國小,校本部校區,市立成州國小_校本部校區,新北市五股區成泰路三段493號,121.4505157,25.09976959,新北市,五股區,國小
14742,市立更寮國小,校本部校區,市立更寮國小_校本部校區,新北市五股區四維路2號,121.4677124,25.06976891,新北市,五股區,國小
14743,市立五股國小,校本部校區,市立五股國小_校本部校區,新北市五股區五股里成泰路二段49號,121.4368286,25.08280182,新北市,五股區,國小
14744,市立蘆洲國小,校本部校區,市立蘆洲國小_校本部校區,新北市蘆洲區中正路100號,121.4700165,25.08405113,新北市,蘆洲區,國小
14745,市立鷺江國小,校本部校區,市立鷺江國小_校本部校區,新北市蘆洲區,121.4761276,25.08434677,新北市,蘆洲區,國小
14746,市立八里國小,八里校區,市立八里國小_八里校區,新北市八里區舊城里中山路二段338號,121.4030304,25.14951515,新北市,八里區,國小
14747,市立長坑國小,校本部校區,市立長坑國小_校本部校區,新北市八里區長坑里中華路三段236號,121.3900833,25.12554359,新北市,八里區,國小
14748,市立米倉國小,校本部校區,市立米倉國小_校本部校區,新北市八里區米倉里龍米路2段129巷1號,121.4453964,25.14684868,新北市,八里區,國小
14749,市立林口國小,林口路校區,市立林口國小_林口路校區,新北市林口區菁湖里林口路76號,121.3898926,25.08084106,新北市,林口區,國小
14750,市立南勢國小,校本部校區,市立南勢國小_校本部校區,新北市林口區南勢五街2號,121.3587875,25.07506561,新北市,林口區,國小
14751,市立嘉寶國小,校本部校區,市立嘉寶國小_校本部校區,24442新北市林口區嘉寶里22號,121.3389969,25.10842514,新北市,林口區,國小
14752,市立瑞平國小,校本部校區,市立瑞平國小_校本部校區,新北市林口區太平里後坑路34之1號,121.3497314,25.12862396,新北市,林口區,國小
14753,市立興福國小,校本部校區,市立興福國小_校本部校區,新北市林口區下福里20鄰10之1號,121.3126907,25.11236572,新北市,林口區,國小
14754,市立三重國小,校本部校區,市立三重國小_校本部校區,新北市三重區三和路三段1號,121.4972916,25.07041168,新北市,三重區,國小
14755,市立永福國小,校本部校區,市立永福國小_校本部校區,新北市三重區永福街66號,121.4806366,25.07700729,新北市,三重區,國小
14756,市立光榮國小,校本部校區,市立光榮國小_校本部校區,新北市三重區介壽路32號,121.5013199,25.07092857,新北市,三重區,國小
14757,市立厚德國小,校本部校區,市立厚德國小_校本部校區,新北市三重區忠孝路一段70號,121.4887314,25.07182312,新北市,三重區,國小
14757,市立厚德國小,校本部校區,市立厚德國小_校本部校區,新北市三重區忠孝路一段70號,121.4885941,25.07185936,新北市,三重區,國小
14758,市立碧華國小,校本部校區,市立碧華國小_校本部校區,三重五華街160號,121.4907684,25.08440399,新北市,三重區,國小
14759,市立三光國小,校本部校區,市立三光國小_校本部校區,新北市三重區同安里大同南路157號,121.4967422,25.05615425,新北市,三重區,國小
14760,市立光興國小,校本部校區,市立光興國小_校本部校區,新北市三重區正義南路62號,121.4987946,25.05896378,新北市,三重區,國小
14761,市立正義國小,校本部校區,市立正義國小_校本部校區,新北市三重區信義西街31號,121.4961166,25.06444359,新北市,三重區,國小
14762,市立修德國小,校本部校區,市立修德國小_校本部校區,新北市三重區重陽路三段3號,121.4890289,25.06618881,新北市,三重區,國小
14763,市立二重國小,校本部校區,市立二重國小_校本部校區,新北市三重區二重里大有街10號,121.4779663,25.06519699,新北市,三重區,國小
14764,市立興穀國小,校本部校區,市立興穀國小_校本部校區,新北市三重區五谷王北街46號,121.4754715,25.05016518,新北市,三重區,國小
14765,市立興化國小,校本部校區,市立興化國小_校本部校區,新北市新莊區福興里五工二路50巷2號,121.4616394,25.06591606,新北市,新莊區,國小
14766,市立中山國小,校本部校區,市立中山國小_校本部校區,新北市板橋區大觀路二段59巷31號,121.4476852,25.00230408,新北市,板橋區,國小
14767,市立三多國小,校本部校區,市立三多國小_校本部校區,新北市樹林區三福街52號,121.4064331,25.01636314,新北市,樹林區,國小
14768,市立實踐國小,校本部校區,市立實踐國小_校本部校區,新北市板橋區實踐路93巷51號,121.4663925,25.00501823,新北市,板橋區,國小
14769,市立大觀國小,校本部校區,市立大觀國小_校本部校區,新北市板橋區大觀路一段30號,121.4493484,25.00860977,新北市,板橋區,國小
14770,市立溪洲國小,校本部校區,市立溪洲國小_校本部校區,新北市板橋區金門街289號,121.4308853,24.98734283,新北市,板橋區,國小
14771,市立信義國小,校本部校區,市立信義國小_校本部校區,新北市板橋區四川路二段245巷60號,121.4528122,24.99173737,新北市,板橋區,國小
14772,市立重慶國小,校本部校區,市立重慶國小_校本部校區,新北市板橋區廣和街31號,121.4624252,24.99445343,新北市,板橋區,國小
14773,市立樂利國小,校本部校區,市立樂利國小_校本部校區,新北市土城區裕生路65號,121.4475632,24.98560143,新北市,土城區,國小
14774,市立安和國小,校本部校區,市立安和國小_校本部校區,新北市土城區延和路23號,121.4647751,24.98880768,新北市,土城區,國小
14775,市立彭福國小,校本部校區,市立彭福國小_校本部校區,新北市樹林區忠孝街30號,121.423439,24.98193169,新北市,樹林區,國小
14776,市立育林國小,校本部校區,市立育林國小_校本部校區,新北市樹林區復興路395號,121.4158936,24.98563385,新北市,樹林區,國小
14777,市立建國國小,校本部校區,市立建國國小_校本部校區,新北市鶯歌區育英街2號,121.3461609,24.955019,新北市,鶯歌區,國小
14778,市立安溪國小,校本部校區,市立安溪國小_校本部校區,新北市三峽區中華路42號,121.3723984,24.93100357,新北市,三峽區,國小
14779,市立樟樹國小,校本部校區,市立樟樹國小_校本部校區,新北市汐止區樟樹一路141巷2號,121.6416855,25.06652832,新北市,汐止區,國小
14780,市立金美國小,校本部校區,市立金美國小_校本部校區,新北市金山區忠孝一路111號,121.6354752,25.22103882,新北市,金山區,國小
14781,市立新和國小,校本部校區,市立新和國小_校本部校區,新北市新店區安和路三段100號,121.5181808,24.98461533,新北市,新店區,國小
14782,市立鄧公國小,校本部校區,市立鄧公國小_校本部校區,新北市淡水區學府里學府路99號,121.449295,25.17131233,新北市,淡水區,國小
14783,市立新興國小,校本部校區,市立新興國小_校本部校區,新北市淡水區新興街123號,121.4400253,25.17968369,新北市,淡水區,國小
14784,市立重陽國小,校本部校區,市立重陽國小_校本部校區,新北市三重區中正北路113號,121.4845047,25.06630707,新北市,三重區,國小
14785,市立五華國小,校本部校區,市立五華國小_校本部校區,新北市三重區集賢路89號,121.4923935,25.08748817,新北市,三重區,國小
14786,市立成功國小,校本部校區,市立成功國小_校本部校區,新北市蘆洲區長安街311號,121.4574585,25.08567238,新北市,蘆洲區,國小
14787,市立仁愛國小,校本部校區,市立仁愛國小_校本部校區,新北市蘆洲區民族路488號,121.470993,25.09145355,新北市,蘆洲區,國小
14788,市立榮富國小,校本部校區,市立榮富國小_校本部校區,新北市新莊區中和街193號,121.4473953,25.05143166,新北市,新莊區,國小
14789,市立裕民國小,市立裕民國小,市立裕民國小_市立裕民國小,新北市新莊區裕民街123號,121.4179993,25.02185631,新北市,新莊區,國小
14790,市立新泰國小,校本部校區,市立新泰國小_校本部校區,新北市新莊區公園一路91號,121.4437866,25.03783989,新北市,新莊區,國小
14791,市立中信國小,校本部校區,市立中信國小_校本部校區,新北市新莊區中信街168號,121.4479904,25.05627441,新北市,新莊區,國小
14792,市立德音國小,校本部校區,市立德音國小_校本部校區,新北市五股區明德路2號,121.4345474,25.07137108,新北市,五股區,國小
14792,市立德音國小,德音國小,市立德音國小_德音國小,新北市五股區明德路2號,121.4345474,25.07137108,新北市,五股區,國小
14793,市立麗園國小,校本部校區,市立麗園國小_校本部校區,新北市林口區忠孝路591號,121.3761978,25.06859016,新北市,林口區,國小
14794,市立北新國小,校本部校區,市立北新國小_校本部校區,新北市新店區寶橋路8號,121.5438919,24.97370911,新北市,新店區,國小
14795,市立同榮國小,校本部校區,市立同榮國小_校本部校區,新北市泰山區公園路33號,121.4281006,25.05428886,新北市,泰山區,國小
14796,市立光復國小,校本部校區,市立光復國小_校本部校區,新北市中和區光環路二段1號,121.4832916,25.01467705,新北市,中和區,國小
14797,市立秀峰國小,校本部校區,市立秀峰國小_校本部校區,新北市汐止區仁愛路90號,121.6615601,25.06257629,新北市,汐止區,國小
14798,市立金龍國小,校本部校區,市立金龍國小_校本部校區,新北市汐止區明峰街201號,121.6272202,25.06871986,新北市,汐止區,國小
14798,市立金龍國小,校本部校區,市立金龍國小_校本部校區,新北市汐止區明峰街201號,121.6270447,25.06880569,新北市,汐止區,國小
14799,市立介壽國小,校本部校區,市立介壽國小_校本部校區,新北市三峽區大同路1號,121.3785172,24.92982864,新北市,三峽區,國小
14801,市立昌平國小,校本部校區,市立昌平國小_校本部校區,新北市新莊區昌平街200號,121.4555817,25.05640411,新北市,新莊區,國小
14802,市立麗林國小,校本部校區,市立麗林國小_校本部校區,新北市林口區公園路46號,121.3679047,25.06871414,新北市,林口區,國小
14803,市立集美國小,校本部校區,市立集美國小_校本部校區,新北市三重區集美街10號,121.4879227,25.05646706,新北市,三重區,國小
14804,市立永吉國小,校本部校區,市立永吉國小_校本部校區,新北市鶯歌區德昌二街2號,121.3329163,24.95876694,新北市,鶯歌區,國小
14805,市立大崁國小,校本部校區,市立大崁國小_校本部校區,新北市八里區忠八街2號,121.4194031,25.16030502,新北市,八里區,國小
14806,市立中園國小,校本部校區,市立中園國小_校本部校區,新北市三峽區弘園街22號,121.3671875,24.92782784,新北市,三峽區,國小
14807,市立昌福國小,校本部校區,市立昌福國小_校本部校區,新北市鶯歌區永明街22號,121.3391647,24.95564461,新北市,鶯歌區,國小
14808,市立忠義國小,校本部校區,市立忠義國小_校本部校區,新北市蘆洲區光榮路99號,121.4638519,25.08929825,新北市,蘆洲區,國小
14812,市立義學國小,校本部校區,市立義學國小_校本部校區,新北市泰山區民生路30號,121.4304962,25.05241013,新北市,泰山區,國小
14815,市立龍埔國小,校本部校區,市立龍埔國小_校本部校區,新北市三峽區大學路6號,121.3778992,24.94138908,新北市,三峽區,國小
14816,市立頭湖國小,校本部校區,市立頭湖國小_校本部校區,新北市林口區民權路101號,121.3720093,25.08273315,新北市,林口區,國小
14817,市立新市國小,校本部校區,市立新市國小_校本部校區,新北市淡水區中山北路二段200號,121.4447021,25.18650627,新北市,淡水區,國小
1.40E+02,縣立網溪國小補校,,縣立網溪國小補校_,新北市永和區竹林路79號,121.5193939,25.01299858,新北市,永和區,國小
1.40E+03,縣立正義國小補校,,縣立正義國小補校_,新北市三重區信義西街31號,121.4961243,25.06438446,新北市,三重區,國小
1.40E+04,縣立積穗國小補校,,縣立積穗國小補校_,新北市中和區員山路154號,121.4814529,24.99913216,新北市,中和區,國小
1.40E+05,縣立後埔國小補校,,縣立後埔國小補校_,新北市板橋區重慶路157號,121.4627075,25.00304794,新北市,板橋區,國小
1.40E+06,縣立民安國小補校,,縣立民安國小補校_,新北市新莊區民安里民安路261號,121.4282074,25.02193832,新北市,新莊區,國小
1.40E+07,縣立淡水國小補校,,縣立淡水國小補校_,新北市淡水區協元里中山路160號,121.4412842,25.17340851,新北市,淡水區,國小
1.40E+08,縣立沙崙國小補校,,縣立沙崙國小補校_,新北市板橋區篤行路二段132號,121.4307327,24.99002457,新北市,板橋區,國小
1.40E+09,縣立大豐國小補校,,縣立大豐國小補校_,新北市新店區民族路108號,121.538208,24.97750854,新北市,新店區,國小
1.40E+10,縣立鷺江國小補校,,縣立鷺江國小補校_,新北市蘆洲區民族路7號,121.4769211,25.08527565,新北市,蘆洲區,國小
1.40E+11,縣立泰山國小補校,,縣立泰山國小補校_,新北市泰山區泰林路二段255號,121.4316864,25.06223106,新北市,泰山區,國小
1.40E+12,縣立思賢國小補校,,縣立思賢國小補校_,新北市新莊區自立街229號,121.456604,25.04561234,新北市,新莊區,國小
1.40E+15,縣立新埔國小補校,,縣立新埔國小補校_,新北市板橋區新翠里陽明街206號,121.4625092,25.02643967,新北市,板橋區,國小
1.40E+16,縣立國光國小補校,,縣立國光國小補校_,新北市板橋區中正路325巷30號,121.4529266,25.01883125,新北市,板橋區,國小
1.40E+17,縣立復興國小補校,,縣立復興國小補校_,新北市中和區復興路301巷6號,121.502449,24.98957443,新北市,中和區,國小
1.40E+18,縣立碧華國小補校,,縣立碧華國小補校_,新北市三重區五華街160號,121.4896698,25.08546829,新北市,三重區,國小
1.40E+19,縣立厚德國小補校,,縣立厚德國小補校_,新北市三重區忠孝路一段70號,121.4886932,25.07191086,新北市,三重區,國小
1.40E+20,縣立永福國小補校,,縣立永福國小補校_,新北市三重區永福里永福街66號,121.4802551,25.07763672,新北市,三重區,國小
1.40E+21,縣立安坑國小補校,,縣立安坑國小補校_,新北市新店區安忠路36號,121.5141602,24.9613018,新北市,新店區,國小
1.40E+22,縣立瑞芳國小補校,,縣立瑞芳國小補校_,新北市瑞芳區龍川里中山路2號,121.8047867,25.10796356,新北市,瑞芳區,國小
1.40E+25,縣立三芝國小補校,,縣立三芝國小補校_,新北市三芝區埔頭里育英街22號,121.5014038,25.25749207,新北市,三芝區,國小
1.40E+26,縣立五股國小補校,,縣立五股國小補校_,新北市五股區五股里成泰路二段49號,121.4373398,25.0823822,新北市,五股區,國小
1.40E+28,縣立樹林國小補校,,縣立樹林國小補校_,新北市樹林區樹西里育英街176號,121.4179535,24.99007988,新北市,樹林區,國小
1.40E+29,縣立十分國小補校,,縣立十分國小補校_,新北市平溪區十分里十分街157號,121.7776489,25.04348946,新北市,平溪區,國小
1.40E+30,縣立鳳鳴國小補校,,縣立鳳鳴國小補校_,新北市鶯歌區鳳鳴里永和街120號,121.3348923,24.96913528,新北市,鶯歌區,國小
1.40E+32,縣立文德國小補校,,縣立文德國小補校_,新北市板橋區新翠里英士路179號,121.4585571,25.02276802,新北市,板橋區,國小
1.40E+33,縣立土城國小補校,,縣立土城國小補校_,新北市土城區興城路17號,121.4418411,24.971241,新北市,土城區,國小
1.40E+34,縣立裕民國小補校,,縣立裕民國小補校_,新北市新莊區裕民街123號,121.4180298,25.02180481,新北市,新莊區,國小
1.40E+35,縣立光華國小補校,,縣立光華國小補校_,新北市新莊區龍安路452號,121.4251175,25.01788139,新北市,新莊區,國小
1.40E+36,縣立秀朗國小補校,,縣立秀朗國小補校_,新北市永和區得和路200號,121.5215912,24.99954796,新北市,永和區,國小
1.40E+37,縣立鄧公國小補校,,縣立鄧公國小補校_,新北市淡水區學府里學府路99號,121.4494629,25.17144394,新北市,淡水區,國小
1.40E+41,縣立林口國小補校,,縣立林口國小補校_,新北市林口區菁湖里林口路76號,121.389679,25.07996941,新北市,林口區,國小
1.40E+43,縣立澳底國小補校,,縣立澳底國小補校_,新北市貢寮區真理里延平街10號,121.9251175,25.05472183,新北市,貢寮區,國小
1.40E+44,縣立萬里國小補校,,縣立萬里國小補校_,新北市萬里區瑪鋉路18號,121.6887589,25.17660713,新北市,萬里區,國小
1.40E+46,縣立文聖國小補校,,縣立文聖國小補校_,新北市板橋區文聖街86號,121.4775085,25.02947044,新北市,板橋區,國小
1.40E+48,縣立清水國小補校,,縣立清水國小補校_,新北市土城區金城路二段356號,121.4612808,24.98483276,新北市,土城區,國小
1.40E+49,縣立文林國小補校,,縣立文林國小補校_,新北市樹林區潭底里千歲街59號,121.4261703,24.99765778,新北市,樹林區,國小
1.40E+51,縣立建國國小補校,,縣立建國國小補校_,新北市鶯歌區育英街2號,121.3468018,24.95498657,新北市,鶯歌區,國小
1.40E+52,縣立中和國小補校,,縣立中和國小補校_,新北市中和區中和路100號,121.5013733,25.0000782,新北市,中和區,國小
1.40E+53,縣立豐年國小補校,,縣立豐年國小補校_,新北市新莊區國泰里瓊泰路116號,121.4432983,25.03094673,新北市,新莊區,國小
1.40E+54,縣立丹鳳國小補校,,縣立丹鳳國小補校_,新北市新莊區中山路三段625號,121.4296341,25.03226089,新北市,新莊區,國小
1.40E+56,縣立三光國小補校,,縣立三光國小補校_,新北市三重區同安里大同南路157號,121.4968414,25.05596733,新北市,三重區,國小
1.40E+60,縣立深坑國小補校,,縣立深坑國小補校_,新北市深坑區深坑里文化街45號,121.6168365,25.00169373,新北市,深坑區,國小
1.40E+62,縣立崇德國小補校,,縣立崇德國小補校_,新北市汐止區茄苳里茄苳路158號,121.6693192,25.06943703,新北市,汐止區,國小
1.40E+63,縣立八里國小補校,,縣立八里國小補校_,新北市八里區舊城里中山路二段338號,121.4033356,25.14935875,新北市,八里區,國小
1.40E+65,縣立蘆洲國小補校,,縣立蘆洲國小補校_,新北市蘆洲區中正路100號,121.4698639,25.0844059,新北市,蘆洲區,國小
1.40E+66,縣立信義國小補校,,縣立信義國小補校_,新北市板橋區四川路二段245巷60號,121.4528656,24.9916935,新北市,板橋區,國小
1.40E+67,縣立埔墘國小補校,,縣立埔墘國小補校_,新北市板橋區成功路54號,121.4740906,25.01810646,新北市,板橋區,國小
1.40E+68,縣立秀山國小補校,,縣立秀山國小補校_,新北市中和區立人街2號,121.5208588,24.99424171,新北市,中和區,國小
014E71j,縣立新和國小附設補校,,縣立新和國小附設補校_,台北縣新店市安和路三段100號,121.5181732,24.98459625,新北市,新店區,國小
014E72j,縣立大同國小附設補校,,縣立大同國小附設補校_,台北縣樹林市大同里大同街43號,121.4173737,24.98213577,新北市,樹林區,國小
1.40E+75,縣立雙城國小補校,,縣立雙城國小補校_,新北市新店區安康路三段322號,121.4865417,24.95207024,新北市,新店區,國小
1.40E+76,縣立重陽國小補校,,縣立重陽國小補校_,新北市三重區中正北路113號,121.4839096,25.06666756,新北市,三重區,國小
1.40E+80,縣立金龍國小補校,,縣立金龍國小補校_,新北市汐止區明峰街201號,121.6270447,25.06880569,新北市,汐止區,國小
1.40E+81,縣立成功國小補校,,縣立成功國小補校_,新北市蘆洲區長安街311號,121.4575958,25.08574295,新北市,蘆洲區,國小
1.40E+85,縣立中湖國小補校,,縣立中湖國小補校_,新北市鶯歌區中湖里中湖街25號,121.3483429,24.97294235,新北市,鶯歌區,國小
1.40E+87,縣立大觀國小補校,,縣立大觀國小補校_,新北市板橋區大觀路一段30號,121.4499588,25.00862885,新北市,板橋區,國小
1.40E+88,縣立中園國小補校,,縣立中園國小補校_,新北市三峽區大同路222巷22弄2號,121.3671799,24.92782784,新北市,三峽區,國小
24520,縣立內城國民中小學,校本部校區,縣立內城國民中小學_校本部校區,宜蘭縣員山鄉內城村內城路545號,121.6881866,24.72045326,宜蘭縣,員山鄉,國小
24520,縣立內城國民中小學,化育分校,縣立內城國民中小學_化育分校,宜蘭縣員山鄉內城村內城路545號,121.6524734,24.71157074,宜蘭縣,員山鄉,國小
24601,縣立中山國小,校本部校區,縣立中山國小_校本部校區,宜蘭縣宜蘭市崇聖街4號,121.7546234,24.75397873,宜蘭縣,宜蘭市,國小
24602,縣立宜蘭國小,校本部校區,縣立宜蘭國小_校本部校區,宜蘭縣宜蘭市崇聖街2號,121.7546768,24.75322723,宜蘭縣,宜蘭市,國小
24603,縣立力行國小,校本部校區,縣立力行國小_校本部校區,宜蘭縣力行路152號,121.7554245,24.76400757,宜蘭縣,宜蘭市,國小
24604,縣立新生國小,校本部校區,縣立新生國小_校本部校區,宜蘭縣宜蘭市大坡路一段100號,121.7545166,24.7706852,宜蘭縣,宜蘭市,國小
24605,縣立光復國小,校本部校區,縣立光復國小_校本部校區,宜蘭縣宜蘭市泰山路60號,121.7468872,24.75531769,宜蘭縣,宜蘭市,國小
24606,縣立育才國小,校本部校區,縣立育才國小_校本部校區,宜蘭縣宜蘭市進士路8號,121.7375336,24.73322105,宜蘭縣,宜蘭市,國小
24607,縣立凱旋國小,校本部校區,縣立凱旋國小_校本部校區,宜蘭縣宜蘭市凱旋路130號,121.7636032,24.72436333,宜蘭縣,宜蘭市,國小
24608,縣立黎明國小,校本部校區,縣立黎明國小_校本部校區,宜蘭縣宜蘭市校舍路1號,121.7643433,24.75167847,宜蘭縣,宜蘭市,國小
24609,宜蘭縣宜蘭市南屏國民小學,校本部校區,宜蘭縣宜蘭市南屏國民小學_校本部校區,宜蘭縣宜蘭市泰山路98號,121.7426376,24.75396347,宜蘭縣,宜蘭市,國小
24610,縣立羅東國小,校本部校區,縣立羅東國小_校本部校區,宜蘭縣羅東鎮民族路1號,121.7724609,24.67312622,宜蘭縣,羅東鎮,國小
24611,縣立成功國小,校本部校區,縣立成功國小_校本部校區,宜蘭縣羅東鎮興東南路100號,121.7696686,24.67112732,宜蘭縣,羅東鎮,國小
24612,縣立公正國小,校本部校區,縣立公正國小_校本部校區,宜蘭縣羅東鎮公正路199號,121.7668076,24.67852783,宜蘭縣,羅東鎮,國小
24613,縣立北成國小,校本部校區,縣立北成國小_校本部校區,宜蘭縣羅東鎮北成路一段125號,121.758812,24.67481232,宜蘭縣,羅東鎮,國小
24614,縣立竹林國小,校本部校區,縣立竹林國小_校本部校區,宜蘭縣羅東鎮復興路2段128號,121.7662735,24.68875885,宜蘭縣,羅東鎮,國小
24615,縣立蘇澳國小,校本部校區,縣立蘇澳國小_校本部校區,宜蘭縣蘇澳鎮中山路一段366號,121.8413239,24.59674644,宜蘭縣,蘇澳鎮,國小
24616,縣立馬賽國小,校本部校區,縣立馬賽國小_校本部校區,宜蘭縣蘇澳鎮永榮里大同路108號,121.8349152,24.62189865,宜蘭縣,蘇澳鎮,國小
24617,縣立蓬萊國小,校本部校區,縣立蓬萊國小_校本部校區,宜蘭縣蘇澳鎮南澳路85號,121.8030243,24.46469879,宜蘭縣,蘇澳鎮,國小
24618,縣立士敏國小,校本部校區,縣立士敏國小_校本部校區,宜蘭縣蘇澳鎮光明路8號,121.8536911,24.59229469,宜蘭縣,蘇澳鎮,國小
24619,縣立永樂國小,校本部校區,縣立永樂國小_校本部校區,宜蘭縣蘇澳鎮永樂路1號,121.8444519,24.57592773,宜蘭縣,蘇澳鎮,國小
24620,縣立南安國小,校本部校區,縣立南安國小_校本部校區,宜蘭縣蘇澳鎮學府路122號,121.8683853,24.57891083,宜蘭縣,蘇澳鎮,國小
24621,縣立岳明國小,校本部校區,縣立岳明國小_校本部校區,宜蘭縣蘇澳鎮港邊里嶺腳路140號,121.8527374,24.61443138,宜蘭縣,蘇澳鎮,國小
24622,縣立育英國小,校本部校區,縣立育英國小_校本部校區,宜蘭縣蘇澳鎮龍德里福德路134號,121.8327789,24.63991165,宜蘭縣,蘇澳鎮,國小
24623,縣立頭城國小,校本部校區,縣立頭城國小_校本部校區,宜蘭縣頭城鎮開蘭路282號,121.8274918,24.86279488,宜蘭縣,頭城鎮,國小
24623,縣立頭城國小,幼兒園校區,縣立頭城國小_幼兒園校區,宜蘭縣頭城鎮開蘭路282號,121.8281174,24.86380577,宜蘭縣,頭城鎮,國小
24623,縣立頭城國小,外澳校區,縣立頭城國小_外澳校區,宜蘭縣頭城鎮開蘭路282號,121.8430176,24.88088226,宜蘭縣,頭城鎮,國小
24624,縣立竹安國小,校本部校區,縣立竹安國小_校本部校區,宜蘭縣頭城鎮竹安里頭濱路一段601號,121.8206329,24.82516289,宜蘭縣,頭城鎮,國小
24625,縣立二城國小,二城校區,縣立二城國小_二城校區,宜蘭縣頭城鎮青雲路二段200號,121.8058014,24.84356499,宜蘭縣,頭城鎮,國小
24626,縣立大溪國小,校本部校區,縣立大溪國小_校本部校區,宜蘭縣頭城鎮濱海路4段250號,121.8864899,24.93542862,宜蘭縣,頭城鎮,國小
24627,縣立大里國小,校本部校區,縣立大里國小_校本部校區,宜蘭縣頭城鎮石城里濱海路七段65號,121.9260559,24.97031212,宜蘭縣,頭城鎮,國小
24627,縣立大里國小,校(園)區,縣立大里國小_校(園)區,宜蘭縣頭城鎮石城里濱海路七段65號,121.9260559,24.97031212,宜蘭縣,頭城鎮,國小
24628,縣立梗枋國小,校本部校區,縣立梗枋國小_校本部校區,宜蘭縣頭城鎮更新里59號,121.8624954,24.90041924,宜蘭縣,頭城鎮,國小
24629,縣立礁溪國小,校本部校區,縣立礁溪國小_校本部校區,宜蘭縣礁溪鄉大忠村礁溪路四段135號,121.7685318,24.8216877,宜蘭縣,礁溪鄉,國小
24630,縣立四結國小,校本部校區,縣立四結國小_校本部校區,宜蘭縣礁溪鄉吳沙村育英路46號,121.7593994,24.78656006,宜蘭縣,礁溪鄉,國小
24631,縣立龍潭國小,校本部校區,縣立龍潭國小_校本部校區,宜蘭縣礁溪鄉龍潭村育龍路71號,121.7446671,24.78020477,宜蘭縣,礁溪鄉,國小
24631,縣立龍潭國小,匏崙校區,縣立龍潭國小_匏崙校區,宜蘭縣礁溪鄉龍潭村育龍路71號,121.7293854,24.79235268,宜蘭縣,礁溪鄉,國小
24632,縣立玉田國小,校本部校區,縣立玉田國小_校本部校區,宜蘭縣礁溪鄉茅埔路24號,121.7902603,24.79575157,宜蘭縣,礁溪鄉,國小
24633,縣立三民國小,校本部校區,縣立三民國小_校本部校區,宜蘭縣礁溪鄉三民村十六結路100號,121.7600784,24.81345749,宜蘭縣,礁溪鄉,國小
24634,縣立員山國小,校本部校區,縣立員山國小_校本部校區,宜蘭縣員山鄉員山村復興路39號,121.7227249,24.74410629,宜蘭縣,員山鄉,國小
24635,縣立深溝國小,校本部校區,縣立深溝國小_校本部校區,宜蘭縣員山鄉深溝村惠民路266號,121.7241135,24.72336197,宜蘭縣,員山鄉,國小
24636,縣立七賢國小,校本部校區,縣立七賢國小_校本部校區,宜蘭縣員山鄉七賢村浮洲路30號,121.7431717,24.71987343,宜蘭縣,員山鄉,國小
24637,縣立同樂國小,校本部校區,縣立同樂國小_校本部校區,宜蘭縣員山鄉同樂村新城路84之4號,121.7289734,24.76281548,宜蘭縣,員山鄉,國小
24638,縣立湖山國小,校本部校區,縣立湖山國小_校本部校區,26446宜蘭縣員山鄉枕山村坡城路54號,121.6994019,24.7790451,宜蘭縣,員山鄉,國小
24639,縣立大湖國小,校本部校區,縣立大湖國小_校本部校區,宜蘭縣員山鄉湖東村蜊埤路55號,121.6911697,24.74796104,宜蘭縣,員山鄉,國小
24640,縣立內城國小,校本部校區,縣立內城國小_校本部校區,宜蘭縣員山鄉員山路三段256號,121.1593475,24.91152382,桃園市,楊梅區,國小
24643,縣立壯圍國小,校本部校區,縣立壯圍國小_校本部校區,宜蘭縣壯圍鄉吉祥村壯五路55號,121.7900772,24.74359131,宜蘭縣,壯圍鄉,國小
24644,縣立古亭國小,校本部校區,縣立古亭國小_校本部校區,宜蘭縣壯圍鄉古亭村古亭路81號,121.7981949,24.77155304,宜蘭縣,壯圍鄉,國小
24645,縣立公館國小,校本部校區,縣立公館國小_校本部校區,宜蘭縣壯圍鄉復興村紅葉路69號,121.8163757,24.73615265,宜蘭縣,壯圍鄉,國小
24646,縣立過嶺國小,校本部校區,縣立過嶺國小_校本部校區,宜蘭縣壯圍鄉過嶺村壯濱路三段261號,121.8143768,24.75860977,宜蘭縣,壯圍鄉,國小
24647,縣立大福國小,校本部校區,縣立大福國小_校本部校區,宜蘭縣壯圍鄉大福村大福路一段62巷26號,121.814537,24.80152702,宜蘭縣,壯圍鄉,國小
24648,縣立新南國小,校本部校區,縣立新南國小_校本部校區,宜蘭縣壯圍鄉美福路一段1號,121.7999268,24.72242737,宜蘭縣,壯圍鄉,國小
24649,縣立五結國小,校本部校區,縣立五結國小_校本部校區,宜蘭縣五結鄉五結中路二段88號,121.7992172,24.6871891,宜蘭縣,五結鄉,國小
24650,縣立學進國小,校本部校區,縣立學進國小_校本部校區,宜蘭縣五結鄉中正路三段151號,121.7704849,24.70693016,宜蘭縣,五結鄉,國小
24651,縣立中興國小,校本部校區,縣立中興國小_校本部校區,宜蘭縣五結鄉中興路三段67號,121.7719421,24.69272804,宜蘭縣,五結鄉,國小
24652,縣立利澤國小,校本部校區,縣立利澤國小_校本部校區,宜蘭縣五結鄉成興村利寶路101號,121.8273926,24.66513062,宜蘭縣,五結鄉,國小
24653,縣立孝威國小,校本部校區,縣立孝威國小_校本部校區,宜蘭縣五結鄉孝威路328號,121.8118286,24.69672394,宜蘭縣,五結鄉,國小
24654,縣立冬山國小,校本部校區,縣立冬山國小_校本部校區,宜蘭縣冬山鄉安平村安中路35號,121.7896347,24.63156319,宜蘭縣,冬山鄉,國小
24655,縣立東興國小,校本部校區,縣立東興國小_校本部校區,宜蘭縣冬山鄉東城村東城路316號,121.806778,24.62910271,宜蘭縣,冬山鄉,國小
24656,縣立順安國小,校本部校區(含附設幼兒園),縣立順安國小_校本部校區(含附設幼兒園),宜蘭縣冬山鄉順安村永興路二段17號,121.7634964,24.65473747,宜蘭縣,冬山鄉,國小
24656,縣立順安國小,中山校區,縣立順安國小_中山校區,宜蘭縣冬山鄉順安村永興路二段17號,121.7435303,24.62693405,宜蘭縣,冬山鄉,國小
024656-a,縣立順安國小中山分校,校本部校區,縣立順安國小中山分校_校本部校區,0,121.7435303,24.62693405,宜蘭縣,冬山鄉,國小
24657,縣立武淵國小,校本部校區,縣立武淵國小_校本部校區,宜蘭縣冬山鄉武淵村富農路二段350號,121.7979736,24.66175079,宜蘭縣,冬山鄉,國小
24658,縣立廣興國小,校本部校區,縣立廣興國小_校本部校區,宜蘭縣冬山鄉廣興村梅花路303號,121.7432632,24.66460609,宜蘭縣,冬山鄉,國小
24659,縣立大進國小,校本部校區,縣立大進國小_校本部校區,宜蘭縣冬山鄉大進村大進七路51號,121.7163467,24.63386726,宜蘭縣,冬山鄉,國小
24660,縣立柯林國小,校本部校區,縣立柯林國小_校本部校區,宜蘭縣冬山鄉柯林村光華路158號,121.7312775,24.67639351,宜蘭縣,冬山鄉,國小
24661,縣立三星國小,校本部校區,縣立三星國小_校本部校區,宜蘭縣三星鄉三星路五段86號,121.6505356,24.66699409,宜蘭縣,三星鄉,國小
24662,縣立大洲國小,校本部校區,縣立大洲國小_校本部校區,宜蘭縣三星鄉上將路二段500號,121.7278976,24.69272995,宜蘭縣,三星鄉,國小
24663,縣立憲明國小,校本部校區,縣立憲明國小_校本部校區,宜蘭縣三星鄉天山村福山街119號,121.6186142,24.66089821,宜蘭縣,三星鄉,國小
24664,宜蘭縣三星鄉萬富國民小學,校本部校區,宜蘭縣三星鄉萬富國民小學_校本部校區,宜蘭縣三星鄉萬富村健富路一段309號,121.6882401,24.67955589,宜蘭縣,三星鄉,國小
24665,縣立大隱國小,校本部校區,縣立大隱國小_校本部校區,宜蘭縣三星鄉大隱中路347號,121.7131195,24.66725159,宜蘭縣,三星鄉,國小
24668,縣立四季國小,校本部校區,縣立四季國小_校本部校區,宜蘭縣大同鄉四季村和勳巷1號,121.4263077,24.48860359,宜蘭縣,大同鄉,國小
024668a1,縣立四季國小(英士分校),英士校區,縣立四季國小(英士分校)_英士校區,宜蘭縣大同鄉英士村梵梵100號,121.5260086,24.61247635,宜蘭縣,大同鄉,國小
024668b1,縣立四季國小(茂安分班),茂安校區,縣立四季國小(茂安分班)_茂安校區,宜蘭縣大同鄉茂安村志航村4號之2,121.450737,24.53277969,宜蘭縣,大同鄉,國小
24669,縣立南山國小,校本部校區,縣立南山國小_校本部校區,宜蘭縣大同鄉南山村四鄰埤南巷31之3號,121.3803635,24.43737984,宜蘭縣,大同鄉,國小
24670,縣立大同國小,校本部校區,縣立大同國小_校本部校區,宜蘭縣大同鄉崙埤村朝陽10-9號,121.6095657,24.67822838,宜蘭縣,大同鄉,國小
024670a1,縣立大同國小(松羅分校),松羅校區,縣立大同國小(松羅分校)_松羅校區,宜蘭縣大同鄉松羅村南巷88號,121.5786057,24.65592766,宜蘭縣,大同鄉,國小
024670a2,縣立大同國小(樂水分校),樂水校區,縣立大同國小(樂水分校)_樂水校區,宜蘭縣大同鄉樂水村碼崙路21號,121.5294113,24.60050392,宜蘭縣,大同鄉,國小
24671,縣立寒溪國小,校本部校區,縣立寒溪國小_校本部校區,宜蘭縣大同鄉寒溪村寒溪巷16號,121.6873703,24.60929298,宜蘭縣,大同鄉,國小
24672,縣立南澳國小,校本部校區,縣立南澳國小_校本部校區,宜蘭縣南澳鄉南澳村中正路15號,121.8005905,24.46730232,宜蘭縣,南澳鄉,國小
24673,縣立碧候國小,校本部校區,縣立碧候國小_校本部校區,宜蘭縣南澳鄉碧候村自覺巷38號,121.7846222,24.47410393,宜蘭縣,南澳鄉,國小
24674,縣立武塔國小,校本部校區,縣立武塔國小_校本部校區,宜蘭縣南澳鄉武塔村新溪路1號,121.7782745,24.44563675,宜蘭縣,南澳鄉,國小
24675,縣立澳花國小,校本部校區,縣立澳花國小_校本部校區,宜蘭縣南澳鄉澳花村中央路19號,121.7395706,24.32931137,宜蘭縣,南澳鄉,國小
24676,縣立東澳國小,校本部校區,縣立東澳國小_校本部校區,宜蘭縣南澳鄉東岳村蘇花路三段209號,121.8329697,24.52155113,宜蘭縣,南澳鄉,國小
24677,縣立金岳國小,校本部校區,縣立金岳國小_校本部校區,宜蘭縣南澳鄉金岳村 (路) 二號,121.7770157,24.47119904,宜蘭縣,南澳鄉,國小
24678,縣立金洋國小,校本部校區,縣立金洋國小_校本部校區,宜蘭縣南澳鄉金洋村(路)11號,121.7492752,24.42601585,宜蘭縣,南澳鄉,國小
24701,縣立清溝國小,校本部校區,縣立清溝國小_校本部校區,宜蘭縣冬山鄉清溝村永清路369號,121.7641754,24.66430283,宜蘭縣,冬山鄉,國小
2.40E+02,縣立中山國小補校,,縣立中山國小補校_,宜蘭縣宜蘭市崇聖街4號,121.7543488,24.75407028,宜蘭縣,宜蘭市,國小
2.40E+03,縣立羅東國小補校,,縣立羅東國小補校_,宜蘭縣羅東鎮民族路1號,121.7729111,24.67325974,宜蘭縣,羅東鎮,國小
2.40E+04,縣立南安國小補校,,縣立南安國小補校_,宜蘭縣蘇澳鎮南建里學府路122號,121.8684464,24.57927513,宜蘭縣,蘇澳鎮,國小
2.40E+05,縣立二城國小補校,,縣立二城國小補校_,宜蘭縣頭城鎮青雲路二段200號,121.8049622,24.84363937,宜蘭縣,頭城鎮,國小
2.40E+06,縣立大隱國小補校,,縣立大隱國小補校_,宜蘭縣三星鄉大埔路129號,121.7158585,24.6738472,宜蘭縣,三星鄉,國小
2.40E+08,縣立學進國小補校,,縣立學進國小補校_,宜蘭縣五結鄉中正路三段151號,121.7705917,24.7068882,宜蘭縣,五結鄉,國小
2.40E+09,縣立古亭國小補校,,縣立古亭國小補校_,宜蘭縣壯圍鄉古亭村古亭路81號,121.7981949,24.77155304,宜蘭縣,壯圍鄉,國小
2.40E+10,縣立礁溪國小補校,,縣立礁溪國小補校_,宜蘭縣礁溪鄉大忠村礁溪路四段135號,121.7695236,24.82140923,宜蘭縣,礁溪鄉,國小
2.40E+11,縣立同樂國小補校,,縣立同樂國小補校_,宜蘭縣員山鄉同樂村新城路84之4號,121.7301559,24.76407433,宜蘭縣,員山鄉,國小
2.40E+12,縣立冬山國小補校,,縣立冬山國小補校_,宜蘭縣冬山鄉安平村安中路35號,121.7897797,24.63253784,宜蘭縣,冬山鄉,國小
31601,私立福祿貝爾國小,校本部校區,私立福祿貝爾國小_校本部校區,桃園縣龍潭鄉金龍路223號,121.2148209,24.85387421,桃園市,龍潭區,國小
31602,私立諾瓦國小,校本部校區,私立諾瓦國小_校本部校區,桃園縣龍潭鄉渴望園區渴望路660巷50弄1號,121.1774979,24.84444427,桃園市,龍潭區,國小
31603,私立有得國小,校本部校區,私立有得國小_校本部校區,桃園市中壢區長春一路288號,121.25177,24.98052025,桃園市,中壢區,國小
34601,市立桃園國小,校本部校區,市立桃園國小_校本部校區,桃園縣桃園市民權路67號,121.3102188,24.9923172,桃園市,桃園區,國小
34602,市立東門國小,校本部校區,市立東門國小_校本部校區,桃園市桃園區東門里東國街14號,121.3148499,24.99515152,桃園市,桃園區,國小
34603,市立中埔國小,校本部校區,市立中埔國小_校本部校區,桃園縣桃園市永安路1054號,121.2869568,25.00946236,桃園市,桃園區,國小
34604,市立成功國小,校本部校區,市立成功國小_校本部校區,桃園市桃園區三民路三段22號,121.3063278,24.99935913,桃園市,桃園區,國小
34605,市立會稽國小,校本部校區,市立會稽國小_校本部校區,桃園市桃園區春日路1080號,121.3090897,25.02025032,桃園市,桃園區,國小
34606,市立建國國小,校本部校區,市立建國國小_校本部校區,桃園縣桃園市昆明路95號,121.3148193,24.98348045,桃園市,桃園區,國小
34607,市立中山國小,校本部校區,市立中山國小_校本部校區,桃園市桃園區國際路一段1070號,121.2902069,24.9864006,桃園市,桃園區,國小
34608,市立文山國小,校本部校區,市立文山國小_校本部校區,桃園市桃園區文中路120號,121.2913971,24.99643898,桃園市,桃園區,國小
34609,市立南門國小,校本部校區,市立南門國小_校本部校區,桃園縣桃園市復興路303號,121.3043671,24.98856735,桃園市,桃園區,國小
34610,市立西門國小,校本部校區,市立西門國小_校本部校區,桃園市桃園區莒光街15號,121.3040161,24.99489212,桃園市,桃園區,國小
34611,市立龍山國小,校本部校區,市立龍山國小_校本部校區,桃園市桃園區龍泉二街36號,121.2700195,24.98070145,桃園市,桃園區,國小
34612,市立北門國小,校本部校區,市立北門國小_校本部校區,桃園市桃園區正康三街139號,121.3069687,25.00718117,桃園市,桃園區,國小
34613,市立南崁國小,校本部校區,市立南崁國小_校本部校區,桃園市蘆竹區長壽里吉林路160號,121.3009338,25.05020142,桃園市,蘆竹區,國小
34614,市立公埔國小,校本部校區,市立公埔國小_校本部校區,桃園市蘆竹區南山路二段448號,121.285965,25.07181168,桃園市,蘆竹區,國小
34615,市立蘆竹國小,校本部校區,市立蘆竹國小_校本部校區,桃園市蘆竹區富國路二段850號,121.267128,25.0508194,桃園市,蘆竹區,國小
34616,市立大竹國小,校本部校區,市立大竹國小_校本部校區,桃園市蘆竹區大竹路556號,121.2585907,25.02466393,桃園市,蘆竹區,國小
34617,市立新興國小,校本部校區,市立新興國小_校本部校區,桃園市蘆竹區新興里新興街355號,121.2648239,25.0083046,桃園市,蘆竹區,國小
34618,市立外社國小,校本部校區,市立外社國小_校本部校區,33841桃園市蘆竹區山林路二段525號,121.3065796,25.08242035,桃園市,蘆竹區,國小
34619,市立頂社國小,校本部校區,市立頂社國小_校本部校區,桃園市蘆竹區山林路三段232號,121.3203659,25.07783127,桃園市,蘆竹區,國小
34620,市立海湖國小,校本部校區,市立海湖國小_校本部校區,桃園縣蘆竹鄉海湖村一鄰57號,121.2675552,25.1025238,桃園市,蘆竹區,國小
34621,市立山腳國小,校本部校區,市立山腳國小_校本部校區,桃園市蘆竹區南山路三段440號,121.2876511,25.08846474,桃園市,蘆竹區,國小
34622,市立大華國小,校本部校區,市立大華國小_校本部校區,桃園市蘆竹區大華街98號,121.2540665,25.03980064,桃園市,蘆竹區,國小
34623,市立新莊國小,校本部校區,市立新莊國小_校本部校區,桃園市蘆竹區大新路380巷121號,121.2464142,25.02775955,桃園市,蘆竹區,國小
34624,市立大園國小,校本部校區,市立大園國小_校本部校區,桃園市大園區橫峰里中正東路160號,121.2022247,25.05992317,桃園市,大園區,國小
34625,市立圳頭國小,校本部校區,市立圳頭國小_校本部校區,桃園市大園區中華路261號,121.2042999,25.07173729,桃園市,大園區,國小
34626,市立內海國小,校本部校區,市立內海國小_校本部校區,桃園市大園區內海里2鄰學府路76巷32號,121.1910706,25.08648109,桃園市,大園區,國小
34627,市立溪海國小,校本部校區,市立溪海國小_校本部校區,桃園市大園區溪海里十一鄰和平西路一段420號,121.1868057,25.0472126,桃園市,大園區,國小
34628,市立潮音國小,校本部校區,市立潮音國小_校本部校區,桃園市大園區南港里16鄰潮音路一段188號,121.1733856,25.06537628,桃園市,大園區,國小
34629,市立竹圍國小,校本部校區,市立竹圍國小_校本部校區,桃園市大園區竹圍里二鄰竹圍街3號,121.2445374,25.10391617,桃園市,大園區,國小
34630,市立果林國小,校本部校區,市立果林國小_校本部校區,桃園市大園區果林里十二鄰41號,121.2562637,25.07691956,桃園市,大園區,國小
34631,市立后厝國小,校本部校區,市立后厝國小_校本部校區,桃園市大園區國際路二段147號,121.2149582,25.08112144,桃園市,大園區,國小
34632,市立沙崙國小,校本部校區,市立沙崙國小_校本部校區,桃園市大園區沙崙里九鄰75號之2,121.2219696,25.09302902,桃園市,大園區,國小
34633,市立埔心國小,校本部校區,市立埔心國小_校本部校區,桃園市大園區埔心里中正東路189巷35號,121.2254105,25.04878426,桃園市,大園區,國小
34634,市立五權國小,校本部校區,市立五權國小_校本部校區,桃園縣大園鄉中正東路二段539號,121.2310638,25.02380753,桃園市,大園區,國小
34635,市立陳康國小,校本部校區,市立陳康國小_校本部校區,桃園市大園區建國八村151號,121.2305069,25.06015205,桃園市,大園區,國小
34636,桃園市龜山國小,校本部校區,桃園市龜山國小_校本部校區,桃園市龜山區萬壽路二段933巷14號,121.3398438,24.99394608,桃園市,龜山區,國小
34636,桃園市龜山國小,校本部,桃園市龜山國小_校本部,桃園市龜山區萬壽路二段933巷14號,121.3636246,25.00220871,桃園市,龜山區,國小
34637,市立壽山國小,校本部校區,市立壽山國小_校本部校區,桃園市龜山區萬壽路二段6巷61號,121.3644028,25.00291634,桃園市,龜山區,國小
34638,市立福源國小,校本部校區,市立福源國小_校本部校區,桃園縣龜山鄉兔坑村大同路916號,121.3573456,24.98860168,桃園市,龜山區,國小
34639,市立大崗國小,校本部校區,市立大崗國小_校本部校區,桃園市龜山區大崗里20鄰大湖一路175號,121.3581467,25.05240631,桃園市,龜山區,國小
34640,市立大埔國小,校本部校區,市立大埔國小_校本部校區,桃園市龜山區舊路村振興路1169號,121.3752594,25.02997398,桃園市,龜山區,國小
34641,市立大坑國小,校本部校區,市立大坑國小_校本部校區,桃園市龜山區大坑路一段850號,121.3149567,25.04455948,桃園市,龜山區,國小
34642,市立山頂國小,校本部校區,市立山頂國小_校本部校區,桃園市龜山區山德里頂興路2號,121.3275909,24.99195862,桃園市,龜山區,國小
34643,市立龍壽國小,校本部校區,市立龍壽國小_校本部校區,桃園縣龜山鄉龍壽村龍校街30號,121.3876572,25.01080322,桃園市,龜山區,國小
34644,市立新路國小,新路國小,市立新路國小_新路國小,桃園市龜山區新路理永和街12號,121.3363266,24.99555588,桃園市,龜山區,國小
34645,市立樂善國小,校本部校區,市立樂善國小_校本部校區,桃園縣龜山鄉樂善村11鄰樂安街71號,121.3820877,25.05239487,桃園市,龜山區,國小
34646,市立大成國小,校本部校區,市立大成國小_校本部校區,桃園市八德區廣福路31號,121.2976456,24.95801353,桃園市,八德區,國小
34647,市立大勇國小,校本部校區,市立大勇國小_校本部校區,桃園市八德區大勇里自強街60號,121.30439,24.96838188,桃園市,八德區,國小
34648,市立八德國小,校本部校區,市立八德國小_校本部校區,桃園市八德區興仁里興豐路222號,121.2833786,24.9283371,桃園市,八德區,國小
34649,市立瑞豐國小,校本部校區,市立瑞豐國小_校本部校區,桃園市八德區介壽路2段933巷40號,121.2999115,24.9358902,桃園市,八德區,國小
34650,市立霄裡國小,校本部校區,市立霄裡國小_校本部校區,桃園市八德區竹園里山下街115號,121.2644882,24.93658829,桃園市,八德區,國小
34651,市立大安國小,校本部校區,市立大安國小_校本部校區,桃園縣八德市大安里和平路638號,121.3155594,24.95608139,桃園市,八德區,國小
34652,市立茄苳國小,校本部校區,市立茄苳國小_校本部校區,桃園市八德區永豐路155號,121.2781219,24.96455193,桃園市,八德區,國小
34653,市立廣興國小,校本部校區,市立廣興國小_校本部校區,桃園市八德區廣德里十八鄰601巷廣興路25號,121.2822418,24.94495201,桃園市,八德區,國小
34654,市立大溪國小,校本部校區,市立大溪國小_校本部校區,桃園縣大溪鎮登龍路19號,121.2865448,24.88490486,桃園市,大溪區,國小
34655,市立美華國小,校本部校區,市立美華國小_校本部校區,桃園市大溪區美華里15鄰金山路50號,121.3049393,24.88125801,桃園市,大溪區,國小
34656,市立內柵國小,校本部校區,市立內柵國小_校本部校區,桃園市大溪區義和里三鄰安和路38號,121.2820969,24.85588455,桃園市,大溪區,國小
34657,市立福安國小,校本部校區,市立福安國小_校本部校區,桃園縣大溪鎮福安里十六鄰復興路一段755號,121.2888641,24.85075951,桃園市,大溪區,國小
34657,市立福安國小,頭寮社區中心,市立福安國小_頭寮社區中心,桃園縣大溪鎮福安里十六鄰復興路一段755號,121.2882462,24.85020256,桃園市,大溪區,國小
34658,市立百吉國小,校本部校區,市立百吉國小_校本部校區,33558桃園市大溪區環湖路二段845號,121.3107529,24.82367706,桃園市,大溪區,國小
34659,市立瑞祥國小,校本部校區,市立瑞祥國小_校本部校區,桃園市大溪區瑞源里14鄰石園路760巷120號,121.2531662,24.8679924,桃園市,大溪區,國小
34660,市立中興國小,校本部校區,市立中興國小_校本部校區,桃園市大溪區瑞興里一鄰大鶯路1125號,121.3109283,24.92520332,桃園市,大溪區,國小
34661,市立員樹林國小,校本部校區,市立員樹林國小_校本部校區,桃園市大溪區員林路二段450號,121.2660141,24.88288689,桃園市,大溪區,國小
34662,市立仁善國小,校本部校區,市立仁善國小_校本部校區,桃園市大溪區埔頂路二段109號,121.2789612,24.90888596,桃園市,大溪區,國小
34663,市立僑愛國小,校本部校區,市立僑愛國小_校本部校區,桃園縣大溪鎮仁義里介壽路214號,121.2922592,24.92070961,桃園市,大溪區,國小
34664,市立南興國小,校本部校區,市立南興國小_校本部校區,桃園市大溪區仁和路二段135號,121.2669601,24.90263748,桃園市,大溪區,國小
34665,市立永福國小,校本部校區,市立永福國小_校本部校區,桃園市大溪區永福里信義路十二鄰1165號,121.3255539,24.89295006,桃園市,大溪區,國小
34666,市立中壢國小,校本部校區,市立中壢國小_校本部校區,桃園縣中壢市中榮里延平路622號,121.2219086,24.95402718,桃園市,中壢區,國小
34667,市立中平國小,校本部校區,市立中平國小_校本部校區,桃園縣中壢市過嶺里一鄰雙福路12號,121.1774902,24.95955849,桃園市,中壢區,國小
34668,市立新明國小,校本部校區,市立新明國小_校本部校區,桃園縣中壢市中央西路二段97號,121.2158279,24.95941925,桃園市,中壢區,國小
34669,市立芭里國小,校本部校區,市立芭里國小_校本部校區,桃園市中壢區啟文路233號,121.201622,24.99473953,桃園市,中壢區,國小
34670,桃園市中壢區新街國民小學,校本部校區,桃園市中壢區新街國民小學_校本部校區,桃園市中壢區新街里延平路176號,121.2286377,24.96273041,桃園市,中壢區,國小
34671,市立信義國小,信義國小,市立信義國小_信義國小,桃園市中壢區信義里成都路55號,121.2322693,24.95081711,桃園市,中壢區,國小
34672,市立普仁國小,校本部校區,市立普仁國小_校本部校區,桃園市中壢區中山東路二段425號,121.2445068,24.94852257,桃園市,中壢區,國小
34673,市立富台國小,校本部校區,市立富台國小_校本部校區,桃園市中壢區中山東路三段369號,121.2524414,24.94025421,桃園市,中壢區,國小
34674,市立青埔國小,校本部校區,市立青埔國小_校本部校區,桃園縣中壢市新生路4段112號,121.2140579,25.00687218,桃園市,中壢區,國小
34675,市立內壢國小,校本部校區,市立內壢國小_校本部校區,桃園市中壢區福德路20號,121.2595978,24.97460747,桃園市,中壢區,國小
34676,市立大崙國小,校本部校區,市立大崙國小_校本部校區,桃園市中壢區月眉里15鄰崇德路139號,121.1800995,24.99074173,桃園市,中壢區,國小
34677,市立山東國小,校本部校區,市立山東國小_校本部校區,桃園市中壢區山東里十三鄰山東一路39號,121.1729279,25.01617241,桃園市,中壢區,國小
34678,市立中正國小,校本部校區,市立中正國小_校本部校區,桃園縣中壢市榮民路329號,121.2629089,24.96205139,桃園市,中壢區,國小
34679,市立自立國小,校本部校區,市立自立國小_校本部校區,桃園市中壢區永福路1200號,121.2518921,24.96806145,桃園市,中壢區,國小
34680,市立龍岡國小,校本部校區,市立龍岡國小_校本部校區,桃園市中壢區龍岡路二段232號,121.2295303,24.94197273,桃園市,中壢區,國小
34681,市立內定國小,校本部校區,市立內定國小_校本部校區,桃園縣中壢市內定里定寧路31號,121.250412,24.99342918,桃園市,中壢區,國小
34682,市立南勢國小,校本部校區,市立南勢國小_校本部校區,桃園市平鎮區中豐路南勢二段223號,121.2110977,24.91347122,桃園市,平鎮區,國小
34683,市立宋屋國小,校本部校區,市立宋屋國小_校本部校區,桃園縣平鎮市延平路二段389號,121.2069855,24.94191551,桃園市,平鎮區,國小
34684,市立新勢國小,校本部校區,市立新勢國小_校本部校區,桃園市平鎮區延平路一段181號,121.2169647,24.94957542,桃園市,平鎮區,國小
34685,市立忠貞國小,校本部校區,市立忠貞國小_校本部校區,桃園市平鎮區龍興村龍南路315號,121.2499237,24.92361259,桃園市,平鎮區,國小
34686,市立東勢國小,校本部校區,市立東勢國小_校本部校區,桃園縣平鎮市平東路一段185號,121.2322464,24.91036987,桃園市,平鎮區,國小
34687,市立山豐國小,校本部校區,市立山豐國小_校本部校區,桃園縣平鎮市中豐路山頂段375巷45號,121.2133026,24.89664459,桃園市,平鎮區,國小
34688,市立復旦國小,校本部校區,市立復旦國小_校本部校區,桃園縣平鎮市廣平街1號,121.2076874,24.95473289,桃園市,平鎮區,國小
34689,市立北勢國小,校本部校區,市立北勢國小_校本部校區,桃園市平鎮區金陵路二段330號,121.2227402,24.93575478,桃園市,平鎮區,國小
34690,市立楊梅國小,校本部校區,市立楊梅國小_校本部校區,桃園市楊梅區校前路1號,121.1445999,24.90616608,桃園市,楊梅區,國小
34691,市立上田國小,校本部校區,市立上田國小_校本部校區,桃園市楊梅區上田里和平路98號,121.126236,24.9381237,桃園市,楊梅區,國小
34692,市立大同國小,校本部校區,市立大同國小_校本部校區,桃園市楊梅區新農街85號,121.1491165,24.90986824,桃園市,楊梅區,國小
34693,市立富岡國小,校本部校區,市立富岡國小_校本部校區,桃園縣楊梅市豐野里中正路147號,121.0807037,24.93749428,桃園市,楊梅區,國小
34694,市立瑞原國小,校本部校區,市立瑞原國小_校本部校區,桃園縣楊梅市瑞原里民安路1號,121.1042938,24.9261322,桃園市,楊梅區,國小
34695,市立上湖國小,校本部校區,市立上湖國小_校本部校區,桃園市楊梅區上湖里十四鄰上湖二路88號,121.0847015,24.9094429,桃園市,楊梅區,國小
34696,市立水美國小,校本部校區,市立水美國小_校本部校區,桃園市楊梅區水美里楊新路一段410號,121.1375351,24.91879272,桃園市,楊梅區,國小
34697,市立瑞埔國小,校本部校區,市立瑞埔國小_校本部校區,桃園縣楊梅市埔心里中興路133號,121.1857834,24.91637421,桃園市,楊梅區,國小
34698,市立高榮國小,校本部校區,市立高榮國小_校本部校區,桃園市楊梅區高上里高上路一段1號,121.1639709,24.93702507,桃園市,楊梅區,國小
34699,市立四維國小,校本部校區,市立四維國小_校本部校區,桃園縣楊梅市光華里19鄰金龍三路95號,121.1845856,24.91219521,桃園市,楊梅區,國小
34700,市立瑞梅國小,校本部校區,市立瑞梅國小_校本部校區,桃園縣楊梅市梅溪里三民北路26巷41號,121.171608,24.91063118,桃園市,楊梅區,國小
34701,市立新屋國小,校本部校區,市立新屋國小_校本部校區,桃園市新屋區新生村中正路196號,121.1020355,24.97408104,桃園市,新屋區,國小
34702,市立啟文國小,校本部校區,市立啟文國小_校本部校區,桃園市新屋區清華里3鄰新文路762號,121.1168594,24.97848892,桃園市,新屋區,國小
34703,市立東明國小,校本部校區,市立東明國小_校本部校區,桃園市新屋區中山西路一段474號,121.0847244,24.97653008,桃園市,新屋區,國小
34704,市立頭洲國小,校本部校區,市立頭洲國小_校本部校區,桃園市新屋區中山東路二段668巷64號,121.141777,24.9628849,桃園市,新屋區,國小
34705,市立永安國小,校本部校區,市立永安國小_校本部校區,桃園市新屋區中山西路二段1320號,121.0466537,24.98739815,桃園市,新屋區,國小
34706,市立笨港國小,校本部校區,市立笨港國小_校本部校區,桃園市新屋區笨港里二鄰文學路22號,121.0261765,24.97474098,桃園市,新屋區,國小
34707,市立北湖國小,校本部校區,市立北湖國小_校本部校區,桃園縣新屋鄉石牌村東興路2段780號,121.0495834,25.00479889,桃園市,新屋區,國小
34708,市立大坡國小,校本部校區,市立大坡國小_校本部校區,桃園縣新屋鄉大坡村五鄰5號,121.04039,24.95722198,桃園市,新屋區,國小
34709,市立蚵間國小,校本部校區,市立蚵間國小_校本部校區,桃園市新屋區後庄里三鄰文化路一段636號,121.008934,24.94801903,桃園市,新屋區,國小
34710,市立社子國小,校本部校區,市立社子國小_校本部校區,桃園市新屋區社子里10鄰社福路235號,121.0819702,24.95621109,桃園市,新屋區,國小
34711,市立埔頂國小,校本部校區,市立埔頂國小_校本部校區,桃園縣新屋鄉埔頂村中華南路二段50號,121.1157837,24.95757675,桃園市,新屋區,國小
34712,市立觀音國小,校本部校區,市立觀音國小_校本部校區,桃園縣觀音鄉觀音村四鄰文化路2號,121.0825043,25.03525734,桃園市,觀音區,國小
34713,市立大潭國小,校本部校區,市立大潭國小_校本部校區,桃園市觀音區大潭里濱海路大潭段687號,121.0589371,25.02132607,桃園市,觀音區,國小
34714,市立保生國小,校本部校區,市立保生國小_校本部校區,桃園市觀音區保生里14鄰5號,121.0721817,25.00641441,桃園市,觀音區,國小
34715,市立新坡國小,校本部校區,市立新坡國小_校本部校區,桃園縣觀音鄉新坡村中山路二段717號,121.1376266,25.01292038,桃園市,觀音區,國小
34716,市立崙坪國小,校本部校區,市立崙坪國小_校本部校區,桃園市觀音區崙坪村297之1號,121.1623077,25.00029373,桃園市,觀音區,國小
34717,市立上大國小,校本部校區,市立上大國小_校本部校區,桃園市觀音區上大里大湖路一段540號,121.1467896,24.97875404,桃園市,觀音區,國小
34718,市立育仁國小,校本部校區,市立育仁國小_校本部校區,桃園市觀音區坑尾里育仁路二段1號,121.1028061,25.01307678,桃園市,觀音區,國小
34719,市立草漯國小,校本部校區,市立草漯國小_校本部校區,桃園市觀音區草新里新生路1462號,121.143219,25.04571533,桃園市,觀音區,國小
34720,市立富林國小,校本部校區,市立富林國小_校本部校區,桃園市觀音區富林里5鄰8號之2,121.1207428,25.03698921,桃園市,觀音區,國小
34721,市立樹林國小,校本部校區,市立樹林國小_校本部校區,桃園市觀音區樹林里新村路二段12號,121.1281891,25.06216621,桃園市,觀音區,國小
34722,市立龍潭國小,校本部校區,市立龍潭國小_校本部校區,桃園市龍潭區龍潭村南龍路13號,121.2136536,24.86391068,桃園市,龍潭區,國小
34723,市立德龍國小,校本部校區,市立德龍國小_校本部校區,桃園市龍潭區聖亭路八德段451巷140號,121.1949081,24.8823452,桃園市,龍潭區,國小
34724,市立潛龍國小,校本部校區,市立潛龍國小_校本部校區,桃園縣龍潭鄉烏林村中豐路401號,121.2112732,24.88078117,桃園市,龍潭區,國小
34725,市立石門國小,校本部校區,市立石門國小_校本部校區,桃園市龍潭區文化路188號,121.2412643,24.8419838,桃園市,龍潭區,國小
34725,市立石門國小,第二校區,市立石門國小_第二校區,桃園市龍潭區文化路188號,121.2353897,24.82226753,桃園市,龍潭區,國小
34726,市立高原國小,校本部校區,市立高原國小_校本部校區,桃園市龍潭區高原路568號,121.1941528,24.83020782,桃園市,龍潭區,國小
34727,市立龍源國小,校本部校區,市立龍源國小_校本部校區,桃園市龍潭區高平里龍源路121巷110弄39號,121.2119522,24.82579231,桃園市,龍潭區,國小
34728,市立三和國小,校本部校區,市立三和國小_校本部校區,桃園市龍潭區龍新路三和段1356號,121.1673355,24.84786987,桃園市,龍潭區,國小
34729,市立武漢國小,校本部校區,市立武漢國小_校本部校區,桃園市龍潭區武漢路100號,121.2342987,24.86996078,桃園市,龍潭區,國小
34730,市立介壽國小,校本部校區,市立介壽國小_校本部校區,桃園縣復興鄉澤仁村中正路33號,121.3509521,24.81568718,桃園市,復興區,國小
34731,市立三民國小,校本部校區,市立三民國小_校本部校區,桃園市復興區三民里十一鄰57號,121.3309631,24.8327198,桃園市,復興區,國小
34732,市立義盛國小,校本部校區,市立義盛國小_校本部校區,桃園市復興區義盛里一鄰11號,121.3791733,24.79092789,桃園市,復興區,國小
34733,市立霞雲國小,校本部校區,市立霞雲國小_校本部校區,桃園市復興區霞雲里六鄰14號,121.3833847,24.81672096,桃園市,復興區,國小
34734,市立奎輝國小,校本部校區,市立奎輝國小_校本部校區,桃園市復興區奎輝里三鄰25號,121.3345413,24.79734421,桃園市,復興區,國小
34735,市立光華國小,校本部校區,市立光華國小_校本部校區,桃園市復興區華陵里四鄰12號,121.3996887,24.65513992,桃園市,復興區,國小
34736,市立高義國小,校本部校區,市立高義國小_校本部校區,桃園市復興區高義里3鄰28號,121.3606186,24.71248055,桃園市,復興區,國小
34737,市立長興國小,校本部校區,市立長興國小_校本部校區,桃園市復興區長興里10鄰43號,121.3075409,24.80012512,桃園市,復興區,國小
34738,市立三光國小,校本部校區,市立三光國小_校本部校區,桃園市復興區三光里六鄰7號,121.3674316,24.67373085,桃園市,復興區,國小
34739,市立羅浮國小(高坡分校),高坡校區,市立羅浮國小(高坡分校)_高坡校區,桃園縣復興鄉羅浮村七鄰高坡27號,121.3513107,24.76796341,桃園市,復興區,國小
34740,市立羅浮國小,校本部校區,市立羅浮國小_校本部校區,桃園縣復興鄉羅浮村三鄰16號,121.3647614,24.79721642,桃園市,復興區,國小
34741,市立巴崚國小,校本部校區,市立巴崚國小_校本部校區,桃園市復興區華陵里九鄰75號,121.3971634,24.68548393,桃園市,復興區,國小
34742,市立東安國小,校本部校區,市立東安國小_校本部校區,桃園縣平鎮市平東路136號,121.250267,24.91774368,桃園市,平鎮區,國小
34743,市立青溪國小,校本部校區,市立青溪國小_校本部校區,桃園市桃園區自強路80號,121.3181686,24.99974251,桃園市,桃園區,國小
34744,市立錦興國小,校本部校區,市立錦興國小_校本部校區,桃園市蘆竹區南竹路一段100號,121.2896957,25.04670525,桃園市,蘆竹區,國小
34745,市立興國國小,校本部校區,市立興國國小_校本部校區,桃園市中壢區元化路二段62號,121.2217178,24.96401405,桃園市,中壢區,國小
34746,市立華勛國小,校本部校區,市立華勛國小_校本部校區,桃園市中壢區榮民南路205號,121.2575836,24.95386314,桃園市,中壢區,國小
34747,市立同安國小,校本部校區,市立同安國小_校本部校區,桃園縣桃園市同德十一街48號,121.2978973,25.0214386,桃園市,桃園區,國小
34748,市立大忠國小,校本部校區,市立大忠國小_校本部校區,桃園縣八德市忠誠街18號,121.3007736,24.95936203,桃園市,八德區,國小
34749,市立楊明國小,校本部校區,市立楊明國小_校本部校區,桃園市楊梅區中山北路一段390巷50號,121.1592178,24.91181946,桃園市,楊梅區,國小
34750,市立祥安國小,校本部校區,市立祥安國小_校本部校區,桃園縣平鎮市湧安路45號,121.2029495,24.8940506,桃園市,平鎮區,國小
34752,市立建德國小,校本部校區,市立建德國小_校本部校區,桃園市桃園區延平路265號,121.3151779,24.97702217,桃園市,桃園區,國小
34753,市立林森國小,校本部校區,市立林森國小_校本部校區,桃園市中壢區林森路95號,121.2265549,24.9454422,桃園市,中壢區,國小
34754,市立文化國小,校本部校區,市立文化國小_校本部校區,桃園縣平鎮市文化街189號,121.2034912,24.95288467,桃園市,平鎮區,國小
34755,市立龍星國小,校本部校區,市立龍星國小_校本部校區,桃園市龍潭區中正路269號,121.2179718,24.8627491,桃園市,龍潭區,國小
34756,市立大有國小,校本部校區,市立大有國小_校本部校區,桃園市桃園區大有路220號,121.3205185,25.00890732,桃園市,桃園區,國小
34757,市立幸福國小,校本部校區,市立幸福國小_校本部校區,桃園市龜山區頂興路115巷20號,121.3302612,24.98915291,桃園市,龜山區,國小
34758,市立慈文國小,校本部校區,市立慈文國小_校本部校區,桃園市桃園區新埔六街2號,121.3042297,25.01276207,桃園市,桃園區,國小
34759,市立大業國小,大業校區,市立大業國小_大業校區,桃園市桃園區大業路一段135號,121.3159409,25.00668144,桃園市,桃園區,國小
34760,市立同德國小,校本部校區,市立同德國小_校本部校區,桃園縣桃園市同德六街175號,121.2959824,25.01474571,桃園市,桃園區,國小
34761,市立光明國小,校本部校區,市立光明國小_校本部校區,桃園市蘆竹區南昌路255號,121.2907944,25.0408783,桃園市,蘆竹區,國小
34762,市立文華國小,校本部校區,市立文華國小_校本部校區,桃園市龜山區大華里文化七路116號,121.3650742,25.0511322,桃園市,龜山區,國小
34763,市立田心國小,校本部校區,市立田心國小_校本部校區,桃園市大溪區文化路120號,121.2921524,24.88046455,桃園市,大溪區,國小
34764,市立忠福國小,校本部校區,市立忠福國小_校本部校區,桃園縣中壢市西園路57號,121.234787,24.97637367,桃園市,中壢區,國小
34765,市立興仁國小,校本部校區,市立興仁國小_校本部校區,桃園市中壢區遠東路210號,121.2620621,24.9677372,桃園市,中壢區,國小
34766,市立平興國小,校本部校區,市立平興國小_校本部校區,桃園縣平鎮市廣泰路168號,121.2034378,24.94498444,桃園市,平鎮區,國小
34767,市立義興國小,校本部校區,市立義興國小_校本部校區,桃園市平鎮區義興街55號,121.209938,24.94930649,桃園市,平鎮區,國小
34768,市立瑞塘國小,校本部校區,市立瑞塘國小_校本部校區,桃園市楊梅區瑞溪路二段100號,121.1799164,24.90768814,桃園市,楊梅區,國小
34769,市立三坑國小,校本部校區,市立三坑國小_校本部校區,桃園縣龍潭鄉三坑村永昌路51巷85號,121.2484512,24.83629608,桃園市,龍潭區,國小
34770,市立楓樹國小,校本部校區,市立楓樹國小_校本部校區,桃園市龜山區楓樹村光峰路277號,121.3429642,25.00598145,桃園市,龜山區,國小
34771,市立楊心國小,校本部校區,市立楊心國小_校本部校區,桃園市楊梅區金華街100號,121.1430054,24.91211891,桃園市,楊梅區,國小
34772,市立南美國小,校本部校區,市立南美國小_校本部校區,桃園市龜山區南美里南上路99號,121.2969513,25.04782104,桃園市,龜山區,國小
34773,市立中原國小,校本部校區,市立中原國小_校本部校區,桃園市中壢區中北路88號,121.238678,24.9560585,桃園市,中壢區,國小
34774,市立元生國小,校本部校區,市立元生國小_校本部校區,桃園縣中壢市文化二路161號,121.2512894,24.97431374,桃園市,中壢區,國小
34775,市立莊敬國小,校本部校區,市立莊敬國小_校本部校區,桃園縣桃園市莊一街107號,121.2929688,25.02112579,桃園市,桃園區,國小
34776,市立自強國小,校本部校區,市立自強國小_校本部校區,桃園市龜山區自強東路269號,121.3456802,24.9964447,桃園市,龜山區,國小
34778,市立新榮國小,校本部校區,市立新榮國小_校本部校區,桃園市平鎮區新勢里中原路88號,121.2182083,24.95264626,桃園市,平鎮區,國小
34780,市立快樂國小,校本部校區,市立快樂國小_校本部校區,桃園市桃園區大有路789號,121.3154449,25.018713,桃園市,桃園區,國小
34781,市立永順國小,校本部校區,市立永順國小_校本部校區,桃園縣桃園市永順街100號,121.2969818,25.00833702,桃園市,桃園區,國小
34782,市立新埔國小,校本部校區,市立新埔國小_校本部校區,桃園縣桃園市經國路208巷36號,121.3066635,25.01787567,桃園市,桃園區,國小
34784,市立文欣國小,校本部校區,市立文欣國小_校本部校區,桃園市龜山區文昌五街95號,121.3716583,25.05779648,桃園市,龜山區,國小
34785,市立雙龍國小,校本部校區,市立雙龍國小_校本部校區,桃園縣龍潭鄉神龍路346號,121.2149887,24.85692406,桃園市,龍潭區,國小
34786,市立龍安國小,校本部校區,市立龍安國小_校本部校區,桃園縣蘆竹鄉文中路一段35號,121.2729263,24.99227333,桃園市,蘆竹區,國小
34787,市立長庚國小,校本部校區,市立長庚國小_校本部校區,桃園市龜山區長庚醫護新村425號,121.3864975,25.0613327,桃園市,龜山區,國小
34788,市立仁和國小,校本部校區,市立仁和國小_校本部校區,桃園市大溪區仁和二街50號,121.2773972,24.89736176,桃園市,大溪區,國小
34789,市立大湖國小,校本部校區,市立大湖國小_校本部校區,桃市龜山區大湖里文三二街80號,121.3596649,25.0576458,桃園市,龜山區,國小
3.40E+02,市立桃園國小補校,,市立桃園國小補校_,桃園縣桃園市民權路67號,121.3108368,24.99225616,桃園市,桃園區,國小
3.40E+03,市立東門國小補校,,市立東門國小補校_,桃園縣桃園市東門里東國街14號,121.3149796,24.99458885,桃園市,桃園區,國小
3.40E+05,市立大成國小補校,,市立大成國小補校_,桃園縣八德市廣福路31號,121.2982864,24.95868683,桃園市,八德區,國小
3.40E+06,市立龍潭國小補校,,市立龍潭國小補校_,桃園縣龍潭鄉龍潭村南龍路13號,121.2130356,24.86402512,桃園市,龍潭區,國小
3.40E+07,市立內壢國小補校,,市立內壢國小補校_,桃園縣中壢市福德路20號,121.2588882,24.9751091,桃園市,中壢區,國小
3.40E+08,市立中壢國小補校,,市立中壢國小補校_,桃園縣中壢市中榮里延平路622號,121.221962,24.95404434,桃園市,中壢區,國小
3.40E+09,市立新明國小補校,,市立新明國小補校_,桃園縣中壢市中央西路二段97號,121.2156219,24.95898056,桃園市,中壢區,國小
3.40E+10,市立楊梅國小補校,,市立楊梅國小補校_,桃園縣楊梅市校前路1號,121.1446686,24.90600777,桃園市,楊梅區,國小
3.40E+11,市立茄苳國小補校,,市立茄苳國小補校_,桃園縣八德市永豐路155號,121.27845,24.96466255,桃園市,八德區,國小
3.40E+12,市立大園國小補校,,市立大園國小補校_,桃園縣大園鄉橫峰村中正東路160號,121.20298,25.06001854,桃園市,大園區,國小
3.40E+13,市立果林國小補校,,市立果林國小補校_,桃園縣大園鄉果林村十二鄰崁下41號,121.2564545,25.07657433,桃園市,大園區,國小
3.40E+14,市立忠貞國小補校,,市立忠貞國小補校_,桃園縣平鎮市龍興村龍南路315號,121.2505264,24.92272758,桃園市,平鎮區,國小
3.40E+16,市立草漯國小補校,,市立草漯國小補校_,桃園縣觀音鄉草漯村新生路1462號,121.1434937,25.04602432,桃園市,觀音區,國小
3.40E+18,市立南崁國小補校,,市立南崁國小補校_,桃園縣蘆竹鄉羊稠村吉林路160號,121.3010101,25.05010605,桃園市,蘆竹區,國小
3.40E+20,市立新屋國小補校,,市立新屋國小補校_,桃園縣新屋鄉新生村中正路196號,121.102005,24.97407913,桃園市,新屋區,國小
3.40E+21,市立瑞埔國小補校,,市立瑞埔國小補校_,桃園縣楊梅市埔心里中興路133號,121.1857834,24.9163723,桃園市,楊梅區,國小
3.40E+22,市立西門國小補校,,市立西門國小補校_,桃園縣桃園市莒光街15號,121.3043594,24.99530983,桃園市,桃園區,國小
3.40E+23,市立會稽國小補校,,市立會稽國小補校_,桃園縣桃園市春日路1080號,121.3086472,25.01973724,桃園市,桃園區,國小
3.40E+24,市立富台國小補校,,市立富台國小補校_,桃園縣中壢市中山東路三段369號,121.2524033,24.94029808,桃園市,中壢區,國小
3.40E+26,市立大竹國小補校,,市立大竹國小補校_,桃園縣蘆竹鄉大竹路556號,121.2587509,25.02479553,桃園市,蘆竹區,國小
3.40E+28,市立大溪國小補校,,市立大溪國小補校_,桃園縣大溪鎮登龍路19號,121.2867966,24.88416862,桃園市,大溪區,國小
3.40E+30,市立龍岡國小補校,,市立龍岡國小補校_,桃園縣中壢市龍岡路二段232號,121.2299423,24.9420681,桃園市,中壢區,國小
3.40E+31,市立建國國小補校,,市立建國國小補校_,桃園縣桃園市昆明路95號,121.3152466,24.98352051,桃園市,桃園區,國小
41601,私立上智國小,校本部校區,私立上智國小_校本部校區,新竹縣竹東鎮東寧路三段二零五號,121.0846329,24.74123955,新竹縣,竹東鎮,國小
44601,縣立關西國小,校本部校區,縣立關西國小_校本部校區,新竹縣關西鎮中山路126號,121.1748657,24.7920208,新竹縣,關西鎮,國小
44602,縣立東安國小,校本部校區,縣立東安國小_校本部校區,新竹縣關西鎮東安里中山東路40號,121.1837158,24.7898159,新竹縣,關西鎮,國小
44603,縣立石光國小,校本部校區,縣立石光國小_校本部校區,新竹縣關西鎮石光里石岡子386號,121.1291962,24.8139801,新竹縣,關西鎮,國小
44604,縣立坪林國小,校本部校區,縣立坪林國小_校本部校區,新竹縣關西鎮上林里坪林11號,121.1404419,24.80060768,新竹縣,關西鎮,國小
44605,縣立南和國小,校本部校區,縣立南和國小_校本部校區,新竹縣關西鎮南和里69號,121.1204834,24.80866051,新竹縣,關西鎮,國小
44606,縣立太平國小,校本部校區,縣立太平國小_校本部校區,新竹縣關西鎮東平里五鄰27號,121.1193695,24.82635689,新竹縣,關西鎮,國小
44607,縣立東光國小,校本部校區,縣立東光國小_校本部校區,新竹縣關西鎮東光里十六張190號,121.1759186,24.77646255,新竹縣,關西鎮,國小
44608,縣立錦山國小,校本部校區,縣立錦山國小_校本部校區,新竹縣關西鎮金山里107號,121.2252274,24.76872253,新竹縣,關西鎮,國小
44609,縣立玉山國小,校本部校區,縣立玉山國小_校本部校區,新竹縣關西鎮玉山里四鄰25號,121.2086792,24.75755119,新竹縣,關西鎮,國小
44610,縣立新埔國小,校本部校區,縣立新埔國小_校本部校區,新竹縣新埔鎮中正路366號,121.0793152,24.82805634,新竹縣,新埔鎮,國小
44611,縣立新星國小,校本部校區,縣立新星國小_校本部校區,新竹縣新埔鎮新民里民生街28號,121.0740738,24.82972717,新竹縣,新埔鎮,國小
44612,縣立照門國小,校本部校區,縣立照門國小_校本部校區,新竹縣新埔鎮照門里9鄰39號,121.1174469,24.84721375,新竹縣,新埔鎮,國小
44613,縣立清水國小,校本部校區,縣立清水國小_校本部校區,新竹縣新埔鎮清水里143號,121.1360931,24.86724091,新竹縣,新埔鎮,國小
44614,縣立照東國小,校本部校區,縣立照東國小_校本部校區,新竹縣新埔鎮鹿鳴里9鄰36號,121.1416855,24.84484482,新竹縣,新埔鎮,國小
44615,縣立北平國小,校本部校區,縣立北平國小_校本部校區,新竹縣新埔鎮北平里62號,121.0862656,24.85253716,新竹縣,新埔鎮,國小
44616,縣立枋寮國小,校本部校區,縣立枋寮國小_校本部校區,新竹縣新埔鎮上寮里義民路二段350號,121.0518341,24.83722878,新竹縣,新埔鎮,國小
44617,縣立寶石國小,校本部校區,縣立寶石國小_校本部校區,新竹縣新埔鎮寶石里九鄰關埔路內立段672號,121.078949,24.81663322,新竹縣,新埔鎮,國小
44618,新竹縣新埔鎮文山國民小學,校本部校區,新竹縣新埔鎮文山國民小學_校本部校區,新竹縣新埔鎮國校街160號,121.0478058,24.82540321,新竹縣,新埔鎮,國小
44619,縣立竹東國小,校本部校區,縣立竹東國小_校本部校區,新竹縣竹東鎮康寧街1號,121.0883255,24.73519325,新竹縣,竹東鎮,國小
44620,縣立中山國小,校本部校區,縣立中山國小_校本部校區,新竹縣竹東鎮雞林里中山路70號,121.094017,24.7333622,新竹縣,竹東鎮,國小
44621,縣立大同國小,校本部校區,縣立大同國小_校本部校區,新竹縣竹東鎮莊敬路111號,121.0886841,24.74029922,新竹縣,竹東鎮,國小
44622,縣立二重國小,校本部校區,縣立二重國小_校本部校區,竹東鎮光明路32號,121.0574875,24.76765823,新竹縣,竹東鎮,國小
44623,縣立竹中國小,校本部校區,縣立竹中國小_校本部校區,新竹縣竹東鎮頭重里竹中路104巷14號,121.0300293,24.78046036,新竹縣,竹東鎮,國小
44624,縣立員崠國小,校本部校區,縣立員崠國小_校本部校區,31051新竹縣竹東鎮東峰路281號,121.0988083,24.7137394,新竹縣,竹東鎮,國小
44625,縣立陸豐國小,校本部校區,縣立陸豐國小_校本部校區,新竹縣竹東鎮陸豐里48號,121.0775146,24.76583672,新竹縣,竹東鎮,國小
44626,縣立瑞峰國小,校本部校區,縣立瑞峰國小_校本部校區,新竹縣竹東鎮上坪里43號,121.1220016,24.66167068,新竹縣,竹東鎮,國小
44627,縣立竹北國小,校本部校區,縣立竹北國小_校本部校區,新竹縣竹北市中央路98號,121.0031052,24.83904457,新竹縣,竹北市,國小
44628,縣立中正國小,校本部校區,縣立中正國小_校本部校區,新竹縣竹北市中山路190號,121.0201035,24.83642387,新竹縣,竹北市,國小
44629,縣立竹仁國小,校本部校區,縣立竹仁國小_校本部校區,新竹縣竹北市竹仁里仁和街1號,121.0131989,24.83615494,新竹縣,竹北市,國小
44630,縣立新社國小,校本部校區,縣立新社國小_校本部校區,新竹縣竹北市新社里40號,120.9981308,24.84283638,新竹縣,竹北市,國小
44630,縣立新社國小,校本部,縣立新社國小_校本部,新竹縣竹北市新社里40號,120.9983902,24.8427887,新竹縣,竹北市,國小
44631,縣立六家國小,校本部校區,縣立六家國小_校本部校區,新竹縣竹北市嘉興路62號,121.0254898,24.81367111,新竹縣,竹北市,國小
44632,縣立東海國小,校本部校區,縣立東海國小_校本部校區,新竹縣竹北市東興路1段839號,121.0499802,24.80580711,新竹縣,竹北市,國小
44633,縣立豐田國小,校本部校區,縣立豐田國小_校本部校區,新竹縣竹北市中正西路1377號,120.964241,24.8422451,新竹縣,竹北市,國小
44634,縣立麻園國小,校本部校區,縣立麻園國小_校本部校區,302新竹縣竹北市長園一街236號,120.977211,24.84653664,新竹縣,竹北市,國小
44635,縣立新港國小,校本部校區,縣立新港國小_校本部校區,新竹縣竹北市長青路一段333巷135號,120.9549332,24.85055542,新竹縣,竹北市,國小
44636,縣立鳳岡國小,校本部校區,縣立鳳岡國小_校本部校區,新竹縣竹北市大義里鳳岡路3段200號,120.9638214,24.86146927,新竹縣,竹北市,國小
44637,縣立新湖國小,校本部校區,縣立新湖國小_校本部校區,新竹縣湖口鄉民族街222號,121.0476074,24.90580559,新竹縣,湖口鄉,國小
44638,縣立和興國小,校本部校區,縣立和興國小_校本部校區,新竹縣湖口鄉和興村德興路930號,121.0389099,24.92715836,新竹縣,湖口鄉,國小
44639,縣立信勢國小,校本部校區,縣立信勢國小_校本部校區,新竹縣湖口鄉信勢村成功路360號,121.0387878,24.89912987,新竹縣,湖口鄉,國小
44640,縣立湖口國小,校本部校區,縣立湖口國小_校本部校區,新竹縣湖口鄉湖口村3鄰八德路二段182號,121.0606308,24.87830544,新竹縣,湖口鄉,國小
44641,縣立山崎國小,校本部校區,縣立山崎國小_校本部校區,新竹縣新豐鄉新興路291號,120.9984741,24.87236023,新竹縣,新豐鄉,國小
44642,縣立長安國小,校本部校區,縣立長安國小_校本部校區,新竹縣湖口鄉長安村長春路50號,121.0952835,24.88713646,新竹縣,湖口鄉,國小
44643,縣立中興國小,校本部校區,縣立中興國小_校本部校區,新竹縣湖口鄉勝利村吉祥街43號,121.0283661,24.86639786,新竹縣,湖口鄉,國小
44644,縣立華興國小,校本部校區,縣立華興國小_校本部校區,新竹縣湖口鄉鳳凰村文化路171號,121.0200806,24.87434387,新竹縣,湖口鄉,國小
44645,縣立橫山國小,校本部校區,縣立橫山國小_校本部校區,新竹縣橫山鄉橫山村橫山100號,121.1149063,24.71846771,新竹縣,橫山鄉,國小
44646,縣立田寮國小,校本部校區,縣立田寮國小_校本部校區,新竹縣橫山鄉田寮村田洋街128號,121.1057053,24.70536423,新竹縣,橫山鄉,國小
44647,縣立大肚國小,校本部校區(含附設幼兒園),縣立大肚國小_校本部校區(含附設幼兒園),新竹縣橫山鄉大肚村中豐路二段157號,121.1401215,24.71907616,新竹縣,橫山鄉,國小
44648,縣立沙坑國小,校本部校區,縣立沙坑國小_校本部校區,新竹縣橫山鄉沙坑村沙坑街48號,121.1614304,24.73934174,新竹縣,橫山鄉,國小
44648,縣立沙坑國小,沙坑國小校區,縣立沙坑國小_沙坑國小校區,新竹縣橫山鄉沙坑村沙坑街48號,121.1614075,24.73834419,新竹縣,橫山鄉,國小
44649,縣立內灣國小,校本部校區,縣立內灣國小_校本部校區,新竹縣橫山鄉內灣村3鄰110號,121.1835938,24.70458603,新竹縣,橫山鄉,國小
44650,縣立福興國小,校本部校區,縣立福興國小_校本部校區,新竹縣新豐鄉後湖村108號,121.009407,24.93294144,新竹縣,新豐鄉,國小
44651,縣立新豐國小,校本部校區,縣立新豐國小_校本部校區,新竹縣新豐鄉重興村明德巷13號,120.9881821,24.9006176,新竹縣,新豐鄉,國小
44652,縣立瑞興國小,校本部校區,縣立瑞興國小_校本部校區,新竹縣新豐鄉瑞興村崁頭63號,121.0098495,24.91154289,新竹縣,新豐鄉,國小
44653,縣立福龍國小,校本部校區,縣立福龍國小_校本部校區,新竹縣新豐鄉福興村113號,121.0358505,24.93013763,新竹縣,新豐鄉,國小
44654,縣立埔和國小,校本部校區,縣立埔和國小_校本部校區,304 新竹縣新豐鄉埔和村466號,120.9819946,24.92084122,新竹縣,新豐鄉,國小
44655,縣立芎林國小,校本部校區,縣立芎林國小_校本部校區,新竹縣芎林鄉文林村四鄰文山路288號,121.0827637,24.77419662,新竹縣,芎林鄉,國小
44656,縣立碧潭國小,校本部校區,縣立碧潭國小_校本部校區,新竹縣芎林鄉石潭村福昌街90號,121.1031494,24.74657249,新竹縣,芎林鄉,國小
44657,縣立五龍國小,校本部校區,縣立五龍國小_校本部校區,新竹縣芎林鄉五龍村105號,121.1235275,24.73723984,新竹縣,芎林鄉,國小
44658,縣立寶山國小,校本部校區,縣立寶山國小_校本部校區,新竹縣寶山鄉寶山村寶山路2段130號,121.02211,24.7403698,新竹縣,寶山鄉,國小
044658a1,縣立寶山國小(山湖分校),校本部校區,縣立寶山國小(山湖分校)_校本部校區,新竹縣寶山鄉山湖村山湖路420號,121.0391083,24.74549675,新竹縣,寶山鄉,國小
44659,縣立新城國小,校本部校區,縣立新城國小_校本部校區,新竹縣寶山鄉寶新路二段475號,120.9675522,24.73345184,新竹縣,寶山鄉,國小
44660,縣立雙溪國小,校本部校區,縣立雙溪國小_校本部校區,新竹縣寶山鄉雙園路二段310號,120.9901428,24.76618576,新竹縣,寶山鄉,國小
44660,縣立雙溪國小,校本部校區,縣立雙溪國小_校本部校區,新竹縣寶山鄉雙園路二段310號,120.9969101,24.72130013,新竹縣,寶山鄉,國小
44661,縣立雙溪國小(三峰分校)(校舍活用),校本部校區,縣立雙溪國小(三峰分校)(校舍活用)_校本部校區,新竹縣寶山鄉三峰村新湖路150號,121.0378494,24.90266037,新竹縣,湖口鄉,國小
44662,縣立北埔國小,北埔國小校園,縣立北埔國小_北埔國小校園,新竹縣北埔鄉埔心街24號,121.0534668,24.70093536,新竹縣,北埔鄉,國小
44663,縣立大坪國小,校本部校區,縣立大坪國小_校本部校區,新竹縣北埔鄉外坪村一鄰外大坪8號,121.05896,24.67471123,新竹縣,北埔鄉,國小
44664,縣立峨眉國小,校本部校區,縣立峨眉國小_校本部校區,新竹縣峨眉鄉峨眉村峨眉街四號,121.0201797,24.68907738,新竹縣,峨眉鄉,國小
44665,縣立富興國小,校本部校區,縣立富興國小_校本部校區,新竹縣峨眉鄉富興村太平街8號,120.9883957,24.68686485,新竹縣,峨眉鄉,國小
44666,縣立尖石國小,校本部校區,縣立尖石國小_校本部校區,新竹縣尖石鄉嘉樂村六鄰7號,121.2262573,24.72857094,新竹縣,尖石鄉,國小
44667,縣立嘉興國小,校本部校區,縣立嘉興國小_校本部校區,新竹縣尖石鄉嘉樂村3鄰177號,121.210556,24.70509148,新竹縣,尖石鄉,國小
044667a1,縣立嘉興國小(義興分校),校本部校區,縣立嘉興國小(義興分校)_校本部校區,新竹縣尖石鄉義興村馬胎8鄰51號,121.1779175,24.68929672,新竹縣,尖石鄉,國小
44668,縣立新樂國小,校本部校區,縣立新樂國小_校本部校區,新竹縣尖石鄉新樂村一鄰10號,121.2509613,24.73130226,新竹縣,尖石鄉,國小
44669,縣立梅花國小,校本部校區,縣立梅花國小_校本部校區,新竹縣尖石鄉梅花村1鄰25號,121.2086029,24.67764664,新竹縣,尖石鄉,國小
44670,縣立錦屏國小,校本部校區,縣立錦屏國小_校本部校區,新竹縣尖石鄉錦屏村十鄰116號,121.2468338,24.68044472,新竹縣,尖石鄉,國小
44671,縣立玉峰國小,校本部校區,縣立玉峰國小_校本部校區,新竹縣尖石鄉玉峰村5鄰59號,121.3014755,24.6600647,新竹縣,尖石鄉,國小
44672,縣立石磊國小,校本部校區,縣立石磊國小_校本部校區,新竹縣尖石鄉玉峰村十鄰49號,121.3263016,24.6554985,新竹縣,尖石鄉,國小
44673,縣立秀巒國小,校本部校區,縣立秀巒國小_校本部校區,新竹縣尖石鄉秀巒村4鄰19號,121.2860184,24.61795425,新竹縣,尖石鄉,國小
44673,縣立秀巒國小,田埔校區,縣立秀巒國小_田埔校區,新竹縣尖石鄉秀巒村4鄰19號,121.2786102,24.64139938,新竹縣,尖石鄉,國小
044673a1,縣立秀巒國小(田埔分校),秀巒國小田埔分校,縣立秀巒國小(田埔分校)_秀巒國小田埔分校,新竹縣尖石鄉秀巒村一鄰5號,121.279335,24.64133072,新竹縣,尖石鄉,國小
44674,縣立新光國小,校本部校區,縣立新光國小_校本部校區,新竹縣尖石鄉秀巒村8鄰17號,121.3030319,24.57997513,新竹縣,尖石鄉,國小
44675,縣立五峰國小,校本部校區,縣立五峰國小_校本部校區,新竹縣五峰鄉大隘村六鄰123號,121.1181641,24.63079643,新竹縣,五峰鄉,國小
44676,縣立桃山國小,校本部校區,縣立桃山國小_校本部校區,新竹縣五峰鄉桃山村15鄰243號,121.1054764,24.57556725,新竹縣,五峰鄉,國小
44677,縣立花園國小,校本部校區,縣立花園國小_校本部校區,新竹縣五峰鄉花園村8鄰174號,121.1515045,24.64801025,新竹縣,五峰鄉,國小
044677a1,縣立花園國小(竹林分校),竹林校區,縣立花園國小(竹林分校)_竹林校區,新竹縣五峰鄉竹林村1鄰羅山15號,121.1481018,24.62490082,新竹縣,五峰鄉,國小
44678,縣立博愛國小,校本部校區,縣立博愛國小_校本部校區,新竹縣竹北市光明六路72號,121.0056992,24.83082771,新竹縣,竹北市,國小
44679,縣立上館國小,校本部校區,縣立上館國小_校本部校區,新竹縣竹東鎮中豐路二段399號,121.0881119,24.72592163,新竹縣,竹東鎮,國小
44680,縣立光明國小,校本部校區,縣立光明國小_校本部校區,新竹縣竹北市光明九路65號,121.0105133,24.82451057,新竹縣,竹北市,國小
44681,縣立松林國小,校本部校區,縣立松林國小_校本部校區,新竹縣新豐鄉松林街99號,120.9907608,24.86898232,新竹縣,新豐鄉,國小
44682,新竹縣竹北市十興國小,校本部校區,新竹縣竹北市十興國小_校本部校區,新竹縣竹北市莊敬北路66號,121.0241852,24.82414627,新竹縣,竹北市,國小
44683,縣立興隆國小,校本部校區,縣立興隆國小_校本部校區,新竹縣竹北市文興路88號,121.015213,24.81629944,新竹縣,竹北市,國小
44684,縣立東興國小,校本部校區,縣立東興國小_校本部校區,新竹縣竹北市嘉豐十一路二段100號,121.0323563,24.80488777,新竹縣,竹北市,國小
44685,縣立安興國小,校本部校區,縣立安興國小_校本部校區,新竹縣竹北市十興路一段435號,121.0321337,24.82706893,新竹縣,竹北市,國小
4.40E+03,縣立新港國小補校,,縣立新港國小補校_,新竹縣竹北市長青路一段333巷135號,120.9547882,24.85035706,新竹縣,竹北市,國小
4.40E+04,縣立寶石國小補校,,縣立寶石國小補校_,新竹縣新埔鎮寶石里九鄰關埔路內立段672號,121.0786743,24.81641769,新竹縣,新埔鎮,國小
4.40E+06,縣立中興國小補校,,縣立中興國小補校_,新竹縣湖口鄉勝利村吉祥街43號,121.0283127,24.86613464,新竹縣,湖口鄉,國小
4.40E+07,縣立竹東國小補校,,縣立竹東國小補校_,新竹縣竹東鎮康寧街1號,121.0865402,24.73394394,新竹縣,竹東鎮,國小
4.40E+08,縣立中正國小補校,,縣立中正國小補校_,新竹縣竹北市竹北村中山路190號,121.0205383,24.83682823,新竹縣,竹北市,國小
54601,縣立建功國小,校本部校區,縣立建功國小_校本部校區,苗栗縣苗栗市中正路241號,120.8245697,24.56428719,苗栗縣,苗栗市,國小
54602,縣立大同國小,校本部校區,縣立大同國小_校本部校區,苗栗縣苗栗市高苗里大同路80號,120.814827,24.553442,苗栗縣,苗栗市,國小
54603,縣立僑育國小,校本部校區,縣立僑育國小_校本部校區,苗栗縣苗栗市僑育街131號,120.8219681,24.55245781,苗栗縣,苗栗市,國小
54604,縣立文山國小,文山校區,縣立文山國小_文山校區,苗栗縣苗栗市文山里4鄰文山41號,120.8129501,24.56869888,苗栗縣,苗栗市,國小
54605,縣立啟文國小,校本部校區,縣立啟文國小_校本部校區,苗栗縣苗栗市福星里啟賢街61號,120.8272095,24.57349968,苗栗縣,苗栗市,國小
54606,縣立新英國小,校本部校區,縣立新英國小_校本部校區,苗栗縣苗栗市南勢里8鄰新勝8號,120.7983322,24.52687454,苗栗縣,苗栗市,國小
54607,縣立頭屋國小,校本部校區,縣立頭屋國小_校本部校區,苗栗縣頭屋鄉頭屋村中山街15號,120.8508759,24.57614326,苗栗縣,頭屋鄉,國小
54608,縣立明德國小,校本部校區,縣立明德國小_校本部校區,362 苗栗縣頭屋鄉明德村明德路4巷13號,120.8857117,24.58592606,苗栗縣,頭屋鄉,國小
54609,縣立公館國小,校本部校區,縣立公館國小_校本部校區,苗栗縣公館鄉館中村大同路15號,120.8268433,24.49892044,苗栗縣,公館鄉,國小
54610,縣立五穀國小,校本部校區,縣立五穀國小_校本部校區,苗栗縣公館鄉五穀村260號,120.8227997,24.52121735,苗栗縣,公館鄉,國小
54611,縣立福基國小,校本部校區,縣立福基國小_校本部校區,苗栗縣公館鄉福基村275號,120.83284,24.46886063,苗栗縣,公館鄉,國小
54612,縣立鶴岡國小,校本部校區,縣立鶴岡國小_校本部校區,苗栗縣公館鄉鶴山村四鄰197號,120.8317719,24.53450012,苗栗縣,公館鄉,國小
54613,縣立福德國小,校本部校區,縣立福德國小_校本部校區,苗栗縣公館鄉福德村65號,120.861351,24.46600151,苗栗縣,公館鄉,國小
54614,縣立開礦國小,校本部校區,縣立開礦國小_校本部校區,苗栗縣公館鄉開礦村九鄰143號,120.8632889,24.46147728,苗栗縣,公館鄉,國小
54615,縣立南河國小,校本部校區,縣立南河國小_校本部校區,苗栗縣公館鄉南河村2鄰21號,120.853157,24.53055,苗栗縣,公館鄉,國小
54616,縣立銅鑼國小,校本部校區,縣立銅鑼國小_校本部校區,苗栗縣銅鑼鄉福興村文化街1號,120.7913589,24.49047852,苗栗縣,銅鑼鄉,國小
54617,縣立中興國小,校本部校區,縣立中興國小_校本部校區,苗栗縣銅鑼鄉中平村150號,120.8097458,24.49772644,苗栗縣,銅鑼鄉,國小
54618,縣立九湖國小,校本部校區,縣立九湖國小_校本部校區,苗栗縣銅鑼鄉九湖村10鄰91之1號,120.7767029,24.47339439,苗栗縣,銅鑼鄉,國小
54619,縣立新隆國小,校本部校區,縣立新隆國小_校本部校區,苗栗縣銅鑼鄉新隆村2 鄰18號,120.8093109,24.42982864,苗栗縣,銅鑼鄉,國小
54620,縣立興隆國小,校本部校區,縣立興隆國小_校本部校區,苗栗縣銅鑼鄉興隆村117號,120.8116684,24.46278763,苗栗縣,銅鑼鄉,國小
54621,縣立文峰國小,校本部校區,縣立文峰國小_校本部校區,苗栗縣銅鑼鄉樟樹村12之1號,120.785614,24.4646492,苗栗縣,銅鑼鄉,國小
54622,縣立建中國小,校本部校區,縣立建中國小_校本部校區,苗栗縣三義鄉廣盛村廣盛80號,120.7695465,24.41397285,苗栗縣,三義鄉,國小
54623,縣立僑成國小,校本部校區,縣立僑成國小_校本部校區,苗栗縣三義鄉勝興村廿份220號,120.7655258,24.40168571,苗栗縣,三義鄉,國小
54624,縣立育英國小,校本部校區,縣立育英國小_校本部校區,苗栗縣三義鄉西湖村上湖63號,120.7592621,24.38280487,苗栗縣,三義鄉,國小
054624a1,縣立育英國小(龍騰分校),龍騰校區,縣立育英國小(龍騰分校)_龍騰校區,苗栗縣三義鄉龍騰村外庄49號,120.7767563,24.3574028,苗栗縣,三義鄉,國小
54625,縣立鯉魚國小,校本部校區,縣立鯉魚國小_校本部校區,苗栗縣三義鄉鯉魚潭村上山下24號,120.7668533,24.34408188,苗栗縣,三義鄉,國小
54627,縣立苑裡國小,校本部校區,縣立苑裡國小_校本部校區,苗栗縣苑裡鎮中山路307號,120.6401291,24.40942955,臺中市,大甲區,國小
54628,縣立文苑國小,校本部校區,縣立文苑國小_校本部校區,苗栗縣苑裡鎮房裡里2鄰14號,120.6321487,24.39487839,臺中市,大甲區,國小
54629,縣立山腳國小,校本部校區,縣立山腳國小_校本部校區,苗栗縣苑裡鎮舊社里10鄰舊社47號,120.685173,24.41760826,苗栗縣,苑裡鎮,國小
54630,縣立中正國小,校本部校區,縣立中正國小_校本部校區,苗栗縣苑裡鎮中正里14鄰111號,120.6846619,24.40815353,苗栗縣,苑裡鎮,國小
54631,縣立藍田國小,校本部校區,縣立藍田國小_校本部校區,苗栗縣苑裡鎮泰田里62號,120.6815872,24.35013008,臺中市,外埔區,國小
54632,縣立中山國小,校本部校區,縣立中山國小_校本部校區,苗栗縣苑裡鎮社苓里四鄰51之1號,120.6616135,24.35931778,臺中市,外埔區,國小
54633,縣立林森國小,校本部校區,縣立林森國小_校本部校區,苗栗縣苑裡鎮水坡里70號,120.6648407,24.39930916,臺中市,大甲區,國小
54634,縣立蕉埔國小,校本部校區,縣立蕉埔國小_校本部校區,苗栗縣苑裡鎮蕉埔里八鄰87之2號,120.6987152,24.37396049,苗栗縣,苑裡鎮,國小
54635,縣立通霄國小,校本部校區,縣立通霄國小_校本部校區,苗栗縣通霄鎮通東里中正路12號,120.6833191,24.49128532,苗栗縣,通霄鎮,國小
54636,縣立五福國小,校本部校區,縣立五福國小_校本部校區,苗栗縣通霄鎮五北里30之1號,120.6657715,24.47282791,苗栗縣,通霄鎮,國小
54637,縣立城中國小,校本部校區,縣立城中國小_校本部校區,苗栗縣通霄鎮城北里一鄰13號,120.7043839,24.47227669,苗栗縣,通霄鎮,國小
54638,縣立啟明國小,校本部校區,縣立啟明國小_校本部校區,苗栗縣通霄鎮內島里二鄰15號,120.7090378,24.55905342,苗栗縣,通霄鎮,國小
54639,縣立新埔國小,校本部校區,縣立新埔國小_校本部校區,苗栗縣通霄鎮新埔里8鄰55號,120.6949692,24.54214096,苗栗縣,通霄鎮,國小
54640,縣立烏眉國小,校本部校區,縣立烏眉國小_校本部校區,苗栗縣通霄鎮烏眉里39號,120.7209778,24.51031876,苗栗縣,通霄鎮,國小
54641,縣立南和國小,校本部校區,縣立南和國小_校本部校區,苗栗縣通霄鎮南和里117號,120.7210388,24.44838142,苗栗縣,通霄鎮,國小
54642,縣立坪頂國小,校本部校區,縣立坪頂國小_校本部校區,苗栗縣通霄鎮坪頂里四鄰50號,120.7054214,24.446455,苗栗縣,通霄鎮,國小
54643,縣立圳頭國小,校本部校區,縣立圳頭國小_校本部校區,苗栗縣通霄鎮圳頭里60號,120.7085495,24.48384094,苗栗縣,通霄鎮,國小
54644,縣立楓樹國小,校本部校區,縣立楓樹國小_校本部校區,苗栗縣通霄鎮楓樹里116號,120.722908,24.49515533,苗栗縣,通霄鎮,國小
54646,縣立西湖國小,校本部校區,縣立西湖國小_校本部校區,苗栗縣西湖鄉龍洞村一鄰18號,120.7580719,24.55724335,苗栗縣,西湖鄉,國小
54647,縣立五湖國小,校本部校區,縣立五湖國小_校本部校區,苗栗縣西湖鄉五湖村上湖九十六號,120.7765579,24.52205849,苗栗縣,西湖鄉,國小
54648,縣立僑文國小,校本部校區,縣立僑文國小_校本部校區,苗栗縣西湖鄉二湖村二鄰22號,120.7479401,24.56255341,苗栗縣,西湖鄉,國小
54649,縣立瑞湖國小,校本部校區,縣立瑞湖國小_校本部校區,苗栗縣西湖鄉四湖村老屋16號,120.7514191,24.52770805,苗栗縣,西湖鄉,國小
54650,縣立頭份國小,校本部校區,縣立頭份國小_校本部校區,苗栗縣頭份鎮頭份里中正路219號,120.9128876,24.6883297,苗栗縣,頭份鎮,國小
54651,縣立六合國小,校本部校區,縣立六合國小_校本部校區,苗栗縣頭份市東庄里民族路252號,120.9005508,24.68606567,苗栗縣,頭份鎮,國小
54652,縣立永貞國小,校本部校區,縣立永貞國小_校本部校區,苗栗縣頭份市田寮里永貞路一段335號,120.8841324,24.68018532,苗栗縣,頭份鎮,國小
54653,縣立尖山國小,校本部校區,縣立尖山國小_校本部校區,苗栗縣頭份鎮尖下里尖豐路305號,120.8839188,24.65463448,苗栗縣,頭份鎮,國小
54654,縣立僑善國小,校本部校區,縣立僑善國小_校本部校區,苗栗縣頭份鎮中正一路395號,120.9347916,24.68680763,苗栗縣,頭份鎮,國小
54655,縣立斗煥國小,校本部校區,縣立斗煥國小_校本部校區,苗栗縣頭份鎮斗煥里中正二路221號,120.9469376,24.68112373,苗栗縣,頭份鎮,國小
54656,后庄國民小學,校本部校區,后庄國民小學_校本部校區,苗栗縣頭份市文化里文化街20號,120.8982391,24.69637871,苗栗縣,頭份鎮,國小
54657,縣立新興國小,校本部校區,縣立新興國小_校本部校區,苗栗縣頭份市下興里水源路157號,120.9130402,24.67551041,苗栗縣,頭份鎮,國小
54658,縣立信德國小,校本部校區,縣立信德國小_校本部校區,苗栗縣頭份市流東里信德路58號,120.9602737,24.68717766,苗栗縣,頭份鎮,國小
54659,縣立竹南國小,校本部校區,縣立竹南國小_校本部校區,苗栗縣竹南鎮中正路146號,120.8703003,24.68396568,苗栗縣,竹南鎮,國小
54660,縣立照南國小,校本部校區,縣立照南國小_校本部校區,苗栗縣竹南鎮佳興里光復路331號,120.8789368,24.69417572,苗栗縣,竹南鎮,國小
54661,縣立大埔國小,校本部校區,縣立大埔國小_校本部校區,苗栗縣竹南鎮大埔里仁愛路1092號,120.8898468,24.70862961,苗栗縣,竹南鎮,國小
54662,縣立頂埔國小,校本部校區,縣立頂埔國小_校本部校區,苗栗縣竹南鎮頂埔里15鄰頂大埔110號,120.9237289,24.70820045,苗栗縣,竹南鎮,國小
54663,縣立海口國小,校本部校區,縣立海口國小_校本部校區,苗栗縣竹南鎮海口里7鄰保福路20號,120.861618,24.67549133,苗栗縣,竹南鎮,國小
54664,苗栗縣三灣鄉三灣國民小學,苗栗縣三灣國民小學,苗栗縣三灣鄉三灣國民小學_苗栗縣三灣國民小學,苗栗縣三灣鄉三灣村中山路49號,120.9558487,24.65629768,苗栗縣,三灣鄉,國小
54665,縣立大河國小,校本部校區,縣立大河國小_校本部校區,苗栗縣三灣鄉大河村64號,120.9461136,24.61728859,苗栗縣,三灣鄉,國小
54667,縣立大坪國小,校本部校區,縣立大坪國小_校本部校區,苗栗縣三灣鄉大坪村四鄰42號,120.91465,24.61776733,苗栗縣,三灣鄉,國小
54668,縣立南庄國小,校本部校區,縣立南庄國小_校本部校區,苗栗縣南庄鄉東村文化路3號,120.9997406,24.60050583,苗栗縣,南庄鄉,國小
54669,縣立田美國小,校本部校區,縣立田美國小_校本部校區,苗栗縣南庄鄉田美村九鄰191號,121.0080109,24.6291275,苗栗縣,南庄鄉,國小
54670,縣立南埔國小,校本部校區,縣立南埔國小_校本部校區,苗栗縣南庄鄉南富村134號,120.9730453,24.63481331,苗栗縣,南庄鄉,國小
54671,縣立東河國小,校本部校區,縣立東河國小_校本部校區,苗栗縣南庄鄉東河村三鄰132號,121.0402908,24.60041046,苗栗縣,南庄鄉,國小
54672,縣立蓬萊國小,校本部校區,縣立蓬萊國小_校本部校區,苗栗縣南庄鄉蓬萊村19鄰118號,120.9706726,24.54298782,苗栗縣,南庄鄉,國小
54673,縣立造橋國小,校本部校區,縣立造橋國小_校本部校區,苗栗縣造橋鄉造橋村十四鄰3號,120.8648605,24.63782501,苗栗縣,造橋鄉,國小
54674,縣立談文國小,校本部校區,縣立談文國小_校本部校區,苗栗縣造橋鄉談文村六鄰54號,120.8499527,24.65225601,苗栗縣,造橋鄉,國小
54675,縣立錦水國小,校本部校區,縣立錦水國小_校本部校區,苗栗縣造橋鄉大西村十三鄰大中街68號,120.8941269,24.62385368,苗栗縣,造橋鄉,國小
54675,縣立錦水國小,大坪分校,縣立錦水國小_大坪分校,苗栗縣造橋鄉大西村十三鄰大中街68號,120.9142685,24.61759949,苗栗縣,三灣鄉,國小
54676,縣立龍昇國小,校本部校區,縣立龍昇國小_校本部校區,苗栗縣造橋鄉龍昇村八鄰16之1號,120.8296661,24.64122009,苗栗縣,造橋鄉,國小
54677,縣立僑樂國小,校本部校區,縣立僑樂國小_校本部校區,苗栗縣造橋鄉錦水村12鄰306號,120.8864441,24.60389328,苗栗縣,造橋鄉,國小
54678,縣立豐湖國小,校本部校區,縣立豐湖國小_校本部校區,苗栗縣造橋鄉豐湖村四鄰5號,120.8372726,24.61387062,苗栗縣,造橋鄉,國小
54679,縣立後龍國小,校本部校區,縣立後龍國小_校本部校區,苗栗縣後龍鎮大庄里成功路254號,120.7960587,24.61436272,苗栗縣,後龍鎮,國小
54681,縣立大山國小,校本部校區,縣立大山國小_校本部校區,苗栗縣後龍鎮灣寶里7鄰109號,120.8097229,24.64552879,苗栗縣,後龍鎮,國小
54682,縣立富田國小,校本部校區,縣立富田國小_校本部校區,356苗栗縣後龍鎮豐富里造豐路181號,120.8288193,24.60122108,苗栗縣,後龍鎮,國小
54683,縣立龍坑國小,校本部校區,縣立龍坑國小_校本部校區,苗栗縣後龍鎮龍坑里158號,120.7782669,24.60196686,苗栗縣,後龍鎮,國小
54684,縣立溪洲國小,校本部校區,縣立溪洲國小_校本部校區,苗栗縣後龍鎮溪洲里87之3號,120.7769012,24.6211071,苗栗縣,後龍鎮,國小
54685,縣立外埔國小,校本部校區,縣立外埔國小_校本部校區,苗栗縣後龍鎮外埔里6鄰18-9號,120.7785645,24.6505661,苗栗縣,後龍鎮,國小
54686,縣立成功國小,校本部校區,縣立成功國小_校本部校區,苗栗縣後龍鎮水尾里12鄰104-1號,120.762291,24.63245964,苗栗縣,後龍鎮,國小
54687,縣立中和國小,校本部校區,縣立中和國小_校本部校區,苗栗縣後龍鎮中和里14鄰152號,120.7350159,24.58781242,苗栗縣,後龍鎮,國小
54688,縣立同光國小,校本部校區,縣立同光國小_校本部校區,苗栗縣後龍鎮龍津里同興94號,120.7619095,24.60970688,苗栗縣,後龍鎮,國小
54689,縣立海寶國小,校本部校區,縣立海寶國小_校本部校區,苗栗縣後龍鎮海寶里五鄰52之2號,120.8212814,24.66143417,苗栗縣,後龍鎮,國小
54690,縣立大湖國小,校本部校區,縣立大湖國小_校本部校區,364苗栗縣大湖鄉中正路育英巷11號,120.8703918,24.42149544,苗栗縣,大湖鄉,國小
54691,縣立南湖國小,校本部校區,縣立南湖國小_校本部校區,苗栗縣大湖鄉義和村南昌路5號,120.8663101,24.39801598,苗栗縣,大湖鄉,國小
54692,縣立華興國小,校本部校區,縣立華興國小_校本部校區,苗栗縣大湖鄉富興村水尾2號,120.8745422,24.44416237,苗栗縣,大湖鄉,國小
54693,縣立大南國小,校本部校區,縣立大南國小_校本部校區,苗栗縣大湖鄉大南村7鄰大南勢15號,120.9024963,24.41083336,苗栗縣,大湖鄉,國小
54694,縣立東興國小,校本部校區,縣立東興國小_校本部校區,苗栗縣大湖鄉東興村下湖37號,120.882515,24.38060379,苗栗縣,大湖鄉,國小
54695,縣立武榮國小,校本部校區,縣立武榮國小_校本部校區,苗栗縣大湖鄉義和村淋漓坪77號,120.8675385,24.38267708,苗栗縣,大湖鄉,國小
54696,縣立新開國小,校本部校區,縣立新開國小_校本部校區,苗栗縣大湖鄉新開村25號,120.8262787,24.34804535,苗栗縣,大湖鄉,國小
54697,縣立栗林國小,校本部校區,縣立栗林國小_校本部校區,苗栗縣大湖鄉栗林村四份61號,120.8429718,24.37379646,苗栗縣,大湖鄉,國小
54698,縣立獅潭國小,校本部校區,縣立獅潭國小_校本部校區,苗栗縣獅潭鄉新店村11鄰129號,120.9207611,24.54017067,苗栗縣,獅潭鄉,國小
54699,縣立豐林國小,校本部校區,縣立豐林國小_校本部校區,苗栗縣獅潭鄉新豐村四鄰56號,120.890213,24.47667885,苗栗縣,獅潭鄉,國小
54700,縣立永興國小,校本部校區,縣立永興國小_校本部校區,苗栗縣獅潭鄉永興村6鄰永興55-1號,120.9366074,24.57361603,苗栗縣,獅潭鄉,國小
54700,縣立永興國小,校本部校區,縣立永興國小_校本部校區,苗栗縣獅潭鄉永興村6鄰永興55-1號,120.936409,24.57383347,苗栗縣,獅潭鄉,國小
54701,縣立卓蘭國小,校本部校區,縣立卓蘭國小_校本部校區,苗栗縣卓蘭鎮新厝里中山路125號,120.8244247,24.31219673,苗栗縣,卓蘭鎮,國小
54702,縣立內灣國小,校本部校區,縣立內灣國小_校本部校區,苗栗縣卓蘭鎮內灣里十一鄰120號,120.8493576,24.29886055,苗栗縣,卓蘭鎮,國小
54703,縣立豐田國小,校本部校區,縣立豐田國小_校本部校區,苗栗縣卓蘭鎮豐田里36號,120.8231888,24.32483673,苗栗縣,卓蘭鎮,國小
54704,縣立坪林國小,校本部校區,縣立坪林國小_校本部校區,苗栗縣卓蘭鎮坪林里七鄰坪林86之2號,120.876358,24.33554268,苗栗縣,卓蘭鎮,國小
54705,縣立雙連國小,校本部校區,縣立雙連國小_校本部校區,369 苗栗縣卓蘭鎮坪林里雙連16-1號,120.8483047,24.33750534,苗栗縣,卓蘭鎮,國小
54706,縣立景山國小,校本部校區,縣立景山國小_校本部校區,苗栗縣卓蘭鎮景山里5鄰88號,120.8652573,24.35263634,苗栗縣,卓蘭鎮,國小
54708,縣立泰興國小,校本部校區,縣立泰興國小_校本部校區,苗栗縣泰安鄉中興村長橋2號,120.921051,24.39453316,苗栗縣,泰安鄉,國小
54709,縣立清安國小,校本部校區,縣立清安國小_校本部校區,苗栗縣泰安鄉清安村洗水坑六鄰122號,120.9261856,24.43995285,苗栗縣,泰安鄉,國小
54711,縣立汶水國小,校本部校區,縣立汶水國小_校本部校區,苗栗縣泰安鄉錦水村4鄰12號,120.9401474,24.46569061,苗栗縣,泰安鄉,國小
54712,縣立象鼻國小,校本部校區,縣立象鼻國小_校本部校區,苗栗縣泰安鄉象鼻村一鄰4號,120.9466858,24.35942078,苗栗縣,泰安鄉,國小
54714,縣立梅園國小,校本部校區,縣立梅園國小_校本部校區,苗栗縣泰安鄉梅園村二鄰38號,120.9712296,24.38859177,苗栗縣,泰安鄉,國小
54715,縣立建國國小,建國校區,縣立建國國小_建國校區,苗栗縣建國路80號,120.912323,24.69537354,苗栗縣,頭份鎮,國小
54716,縣立竹興國小,竹興校區,縣立竹興國小_竹興校區,苗栗縣竹南鎮竹興里竹圍街27號,120.8642502,24.68766212,苗栗縣,竹南鎮,國小
54717,縣立文華國小,校本部校區,縣立文華國小_校本部校區,苗栗縣苗栗市正發路133號,120.8174744,24.56843185,苗栗縣,苗栗市,國小
54718,縣立福星國小,校本部校區,縣立福星國小_校本部校區,苗栗縣苗栗市中華東街62號,120.8261719,24.5789566,苗栗縣,苗栗市,國小
54719,縣立新南國小,校本部校區,縣立新南國小_校本部校區,苗栗縣竹南鎮新南里五谷街2號,120.8848267,24.68876266,苗栗縣,竹南鎮,國小
54720,苗栗縣頭份市蟠桃國民小學,校本部校區,苗栗縣頭份市蟠桃國民小學_校本部校區,苗栗縣頭份鎮信東路285號,120.9061432,24.69265938,苗栗縣,頭份鎮,國小
54721,縣立仁愛國小,校本部校區,縣立仁愛國小_校本部校區,苗栗縣公館鄉中村仁愛路二段123號,120.8246613,24.5046978,苗栗縣,公館鄉,國小
54722,縣立客庄國小,客庄校區,縣立客庄國小_客庄校區,苗栗縣苑裡鎮客庄里新興路21號,120.6401215,24.39969635,臺中市,大甲區,國小
54723,縣立山佳國小,校本部校區,縣立山佳國小_校本部校區,苗栗縣竹南鎮山佳里龍山路三段39號,120.8782578,24.70221138,苗栗縣,竹南鎮,國小
54724,縣立信義國小,校本部校區,縣立信義國小_校本部校區,苗栗縣頭份市後庄里信中路36號,120.8909531,24.69698334,苗栗縣,頭份鎮,國小
54725,縣立士林國小,校本部校區,縣立士林國小_校本部校區,365 苗栗縣泰安鄉士林村5鄰26號,120.9305878,24.34794235,苗栗縣,泰安鄉,國小
5.40E+02,縣立大同國小補校,,縣立大同國小補校_,苗栗縣苗栗市高苗里大同路80號,120.8152313,24.55289078,苗栗縣,苗栗市,國小
5.40E+04,縣立建國國小補校,,縣立建國國小補校_,苗栗縣頭份鎮建國路80號,120.91185,24.69477272,苗栗縣,頭份鎮,國小
5.40E+08,縣立獅潭國小補校,,縣立獅潭國小補校_,苗栗縣獅潭鄉新店村十一鄰129號,120.9208069,24.54029655,苗栗縣,獅潭鄉,國小
5.40E+09,縣立南庄國小補校,,縣立南庄國小補校_,苗栗縣南庄鄉東村文化路3號,120.9996033,24.60080338,苗栗縣,南庄鄉,國小
5.40E+10,縣立後龍國小補校,,縣立後龍國小補校_,苗栗縣後龍鎮大庄里成功路254號,120.7958603,24.61379814,苗栗縣,後龍鎮,國小
5.40E+12,縣立卓蘭國小補校,,縣立卓蘭國小補校_,苗栗縣卓蘭鎮新厝里中山路125號,120.8250351,24.31254768,苗栗縣,卓蘭鎮,國小
5.40E+13,縣立竹南國小補校,,縣立竹南國小補校_,苗栗縣竹南鎮中正路146號,120.8709259,24.68391037,苗栗縣,竹南鎮,國小
5.40E+18,縣立錦水國小補校,,縣立錦水國小補校_,苗栗縣造橋鄉大西村十三鄰大坪1號,120.8814163,24.62785721,苗栗縣,造橋鄉,國小
5.40E+20,縣立斗煥國小補校,,縣立斗煥國小補校_,苗栗縣頭份鎮斗煥里中正二路221號,120.9471512,24.68113136,苗栗縣,頭份鎮,國小
5.40E+22,縣立建中國小補校,,縣立建中國小補校_,苗栗縣三義鄉廣盛村廣盛80號,120.7695084,24.41371918,苗栗縣,三義鄉,國小
5.40E+24,縣立啟文國小補校,,縣立啟文國小補校_,苗栗縣苗栗市福星里啟文巷35號,120.8276291,24.57313156,苗栗縣,苗栗市,國小
5.40E+29,縣立中正國小補校,,縣立中正國小補校_,苗栗縣苑裡鎮中正里十四鄰111號,120.6846619,24.40815353,苗栗縣,苑裡鎮,國小
5.40E+30,縣立照南國小補校,,縣立照南國小補校_,苗栗縣竹南鎮佳興里光復路331號,120.8794479,24.69407845,苗栗縣,竹南鎮,國小
054K05,苗栗縣竹南鎮竹興國民小學特殊教育班,本班,苗栗縣竹南鎮竹興國民小學特殊教育班_本班,竹圍街27號,120.8649597,24.68712616,苗栗縣,竹南鎮,國小
054K06,苗栗縣頭份鎮六合國民小學特殊教育班,本班,苗栗縣頭份鎮六合國民小學特殊教育班_本班,民族路252號,120.9012451,24.6854248,苗栗縣,頭份鎮,國小
61601,私立華盛頓國小,校本部校區,私立華盛頓國小_校本部校區,臺中市潭子區潭興路一段165巷300號,120.7177353,24.19676018,臺中市,潭子區,國小
063K08,臺中市霧峰區霧峰國民小學特殊教育班,本班,臺中市霧峰區霧峰國民小學特殊教育班_本班,中正路736號,120.6993866,24.05757332,臺中市,霧峰區,國小
64601,市立豐原國小,校本部校區,市立豐原國小_校本部校區,臺中市豐原區新生北路155號,120.7212219,24.25539398,臺中市,豐原區,國小
64602,市立瑞穗國小,校本部校區,市立瑞穗國小_校本部校區,臺中市豐原區西安街72號,120.7116699,24.24928093,臺中市,豐原區,國小
64603,市立南陽國小,校本部校區,市立南陽國小_校本部校區,臺中市豐原區中陽里南陽路440號,120.723259,24.24809647,臺中市,豐原區,國小
64604,市立富春國小,校本部校區,市立富春國小_校本部校區,臺中市豐原區中山路455號,120.7137756,24.25214577,臺中市,豐原區,國小
64605,市立豐村國小,校本部校區,市立豐村國小_校本部校區,臺中市豐原區水源路341號,120.7366333,24.25532341,臺中市,豐原區,國小
64606,市立翁子國小,校本部校區,市立翁子國小_校本部校區,臺中市豐原區翁子里豐勢路2段290巷3號,120.7426987,24.26320648,臺中市,豐原區,國小
64607,市立豐田國小,校本部校區,市立豐田國小_校本部校區,臺中市豐原區田心路二段290號,120.721962,24.23690987,臺中市,豐原區,國小
64608,市立合作國小,校本部校區,市立合作國小_校本部校區,臺中市豐原區三村里西勢路410號,120.7040176,24.23976707,臺中市,豐原區,國小
64609,市立內埔國小,校本部校區,市立內埔國小_校本部校區,臺中市后里區文化路30號,120.7145157,24.30754089,臺中市,后里區,國小
64610,市立后里國小,校本部校區,市立后里國小_校本部校區,421 臺中市后里區甲后路一段168號,120.729538,24.31007195,臺中市,后里區,國小
64611,市立月眉國小,校本部校區,市立月眉國小_校本部校區,臺中市后里區眉山里甲后路940號,120.6908112,24.31487274,臺中市,后里區,國小
64612,市立七星國小,校本部校區,市立七星國小_校本部校區,421 臺中市后里區墩南里南村路389號,120.7114639,24.30147171,臺中市,后里區,國小
64613,市立育英國小,校本部校區,市立育英國小_校本部校區,臺中市后里區四月路23號,120.6788483,24.31132126,臺中市,后里區,國小
64614,市立后里區泰安國小,校本部校區,市立后里區泰安國小_校本部校區,臺中市后里區泰安里安眉路5號,120.7504578,24.32525063,臺中市,后里區,國小
64615,市立神岡國小,校本部校區,市立神岡國小_校本部校區,臺中市神岡區神圳路1號,120.6607819,24.25837898,臺中市,神岡區,國小
64616,市立豐洲國小,校本部校區,市立豐洲國小_校本部校區,429 臺中市神岡區豐洲里豐洲路482號,120.7039795,24.26228714,臺中市,神岡區,國小
64617,市立社口國小,校本部校區,市立社口國小_校本部校區,臺中市神岡區社南里社南街136號,120.6846771,24.24570274,臺中市,神岡區,國小
64618,市立圳堵國小,校本部校區,市立圳堵國小_校本部校區,臺中市神岡區圳堵里三民路639號,120.6586685,24.27251625,臺中市,神岡區,國小
64619,市立岸裡國小,校本部校區,市立岸裡國小_校本部校區,42946臺中市神岡區中山路52號,120.6975403,24.2497654,臺中市,神岡區,國小
64620,市立大雅國小,校本部校區,市立大雅國小_校本部校區,臺中市大雅區二和里學府路230號,120.6511078,24.22223854,臺中市,大雅區,國小
64621,市立三和國小,校本部校區,市立三和國小_校本部校區,臺中市大雅區三和里春亭街一號,120.6674652,24.2192955,臺中市,大雅區,國小
64622,市立大明國小,校本部校區,市立大明國小_校本部校區,台中市大雅區中清路四段158號,120.6438293,24.22908401,臺中市,大雅區,國小
64623,市立上楓國小,校本部校區,市立上楓國小_校本部校區,42872臺中市大雅區上楓里楓林街232號,120.6670685,24.2364502,臺中市,大雅區,國小
64624,市立汝鎏國小,校本部校區,市立汝鎏國小_校本部校區,臺中市大雅區秀山里平和路238號,120.6269379,24.23128319,臺中市,大雅區,國小
64625,市立陽明國小,校本部校區,市立陽明國小_校本部校區,臺中市大雅區秀山里秀山路365號,120.6323471,24.22145081,臺中市,大雅區,國小
64626,市立潭子國小,校本部校區,市立潭子國小_校本部校區,臺中市潭子區中山路二段435號,120.7040176,24.2145195,臺中市,潭子區,國小
64627,市立僑忠國小,校本部校區,市立僑忠國小_校本部校區,臺中市潭子區中山路二段31號,120.7034073,24.20248032,臺中市,潭子區,國小
64628,市立東寶國小,校本部校區,市立東寶國小_校本部校區,臺中市潭子區雅潭路3段2號,120.6842728,24.21680069,臺中市,潭子區,國小
64629,市立潭子區新興國小,新校區,市立潭子區新興國小_新校區,臺中市潭子區潭興路一段25號,120.7256012,24.20355225,臺中市,潭子區,國小
64629,市立潭子區新興國小,校本部校區,市立潭子區新興國小_校本部校區,臺中市潭子區潭興路一段25號,120.725853,24.20431709,臺中市,潭子區,國小
64630,市立外埔國小,校本部校區,市立外埔國小_校本部校區,臺中市外埔區大同里外埔路878號,120.6534958,24.33256531,臺中市,外埔區,國小
64631,市立安定國小,校本部校區,市立安定國小_校本部校區,臺中市外埔區土城西路55號,120.704895,24.34613419,臺中市,外埔區,國小
64632,市立鐵山國小,校本部校區,市立鐵山國小_校本部校區,臺 中市外埔區 鐵山里長生路576號,120.6564255,24.34904289,臺中市,外埔區,國小
64633,市立馬鳴國小,校本部校區,市立馬鳴國小_校本部校區,臺中市外埔區中山里東西巷13號,120.6643524,24.33786392,臺中市,外埔區,國小
64634,市立水美國小,校本部校區,市立水美國小_校本部校區,臺中市外埔區水美里二崁路390巷63號,120.6364441,24.32624054,臺中市,外埔區,國小
64635,市立東勢國小,臺中市東勢區東勢國民小學,市立東勢國小_臺中市東勢區東勢國民小學,臺中市東勢區廣興里第五橫街1號,120.8307648,24.2585125,臺中市,東勢區,國小
64636,市立中山國小,校本部校區,市立中山國小_校本部校區,42348 臺中市東勢區泰昌里中泰街88號,120.8353729,24.25291061,臺中市,東勢區,國小
64637,市立石城國小,校本部校區,市立石城國小_校本部校區,臺中市東勢區茂興里石城街182巷26號,120.7922821,24.28628159,臺中市,東勢區,國小
64638,市立東勢區成功國小,校本部校區,市立東勢區成功國小_校本部校區,臺中市東勢區慶東里東關路298號,120.8399506,24.20786476,臺中市,東勢區,國小
64639,市立石角國小,校本部校區,市立石角國小_校本部校區,臺中市東勢區東坑路西盛巷22號,120.8504868,24.23764801,臺中市,東勢區,國小
64639,市立石角國小,臺中市東勢區石角國小,市立石角國小_臺中市東勢區石角國小,臺中市東勢區東坑路西盛巷22號,120.850708,24.23781013,臺中市,東勢區,國小
64640,市立中科國小,校本部校區,市立中科國小_校本部校區,臺中市東勢區東崎路4段92巷16號,120.851532,24.25746536,臺中市,東勢區,國小
64641,市立新成國小,校本部校區,市立新成國小_校本部校區,42347臺中市東勢區新城街260號,120.8394165,24.22128868,臺中市,東勢區,國小
64642,市立明正國小,校本部校區,市立明正國小_校本部校區,42346 臺中市東勢區明正里東蘭路永盛巷57-1號,120.7903061,24.30935478,臺中市,東勢區,國小
64643,市立石岡國小,校本部校區,市立石岡國小_校本部校區,臺中市石岡區石岡街123號,120.7733078,24.2760582,臺中市,石岡區,國小
64644,市立土牛國小,校本部校區,市立土牛國小_校本部校區,臺中市石岡區豐勢路308號,120.8076172,24.26608467,臺中市,石岡區,國小
64645,市立新社國小,校本部校區,市立新社國小_校本部校區,台中市新社區新社里興社街四段一巷二號,120.8110809,24.24130249,臺中市,新社區,國小
64646,市立新社區東興國小,校本部校區,市立新社區東興國小_校本部校區,臺中市新社區東興里興社街1段國校巷13號,120.8189697,24.20654869,臺中市,新社區,國小
64647,市立大南國小,校本部校區,市立大南國小_校本部校區,42642 臺中市新社區大南里興中街47號,120.8053665,24.2270565,臺中市,新社區,國小
64648,市立協成國小,校本部校區,市立協成國小_校本部校區,臺中市新社區協成里興義街219號,120.8128738,24.19360733,臺中市,新社區,國小
64649,市立大林國小,校本部校區,市立大林國小_校本部校區,臺中市新社區福興里美林38號,120.8643951,24.15955734,臺中市,新社區,國小
64650,市立崑山國小,校本部校區,市立崑山國小_校本部校區,臺中市新社區崑山里崑南街崑崙巷5-2號,120.7876358,24.24170303,臺中市,新社區,國小
64651,市立中和國小,校本部校區,市立中和國小_校本部校區,臺中市新社區中和里中興街129號,120.8284454,24.15697289,臺中市,新社區,國小
64652,市立清水國小,校本部校區,市立清水國小_校本部校區,臺中市清水區光華路125號,120.5731659,24.26682663,臺中市,清水區,國小
64653,市立西寧國小,校本部校區,市立西寧國小_校本部校區,臺中市清水區西寧里五權東路50號,120.5745316,24.27639961,臺中市,清水區,國小
64654,市立建國國小,校本部校區,市立建國國小_校本部校區,臺中市清水區建國路10號,120.5626297,24.27095032,臺中市,清水區,國小
64655,市立大秀國小,校本部校區,市立大秀國小_校本部校區,臺中市清水區武鹿里五權路336號,120.5573196,24.27919388,臺中市,清水區,國小
64656,市立三田國小,校本部校區,市立三田國小_校本部校區,臺中市清水區田寮里三田路4號,120.5810699,24.28987122,臺中市,清水區,國小
64657,市立甲南國小,校本部校區,市立甲南國小_校本部校區,臺中市清水區菁埔里臨海路26號,120.5956039,24.30486679,臺中市,清水區,國小
64658,市立高美國小,校本部校區,市立高美國小_校本部校區,臺中市清水區護岸路37號,120.5626068,24.3117733,臺中市,清水區,國小
64659,市立大楊國小,校本部校區,市立大楊國小_校本部校區,臺中市清水區楊厝里鰲海路325號,120.6101379,24.29229546,臺中市,清水區,國小
64660,市立東山國小,校本部校區,市立東山國小_校本部校區,臺中市清水區東山里神清路6-1號,120.6345901,24.27628517,臺中市,清水區,國小
64661,市立梧棲國小,校本部校區,市立梧棲國小_校本部校區,臺中市梧棲區安仁里民生街45號,120.530983,24.25270462,臺中市,梧棲區,國小
64662,市立梧南國小,校本部校區,市立梧南國小_校本部校區,臺中市梧棲區草湳里文化路一段6號,120.5236511,24.24247932,臺中市,梧棲區,國小
64663,市立梧棲區中正國小,校本部校區,市立梧棲區中正國小_校本部校區,臺中市梧棲區中央路二段15號,120.5386353,24.25041199,臺中市,梧棲區,國小
64664,市立永寧國小,校本部校區,市立永寧國小_校本部校區,43546臺中市梧棲區中央路一段160號,120.5330276,24.22953987,臺中市,梧棲區,國小
64665,市立大甲國小,校本部校區,市立大甲國小_校本部校區,臺中市大甲區育德路233號,120.6257172,24.35120392,臺中市,大甲區,國小
64666,市立德化國小,校本部校區,市立德化國小_校本部校區,臺中市大甲區德化里和平路290號,120.6246719,24.3619957,臺中市,大甲區,國小
64667,市立大甲區文昌國小,校本部校區,市立大甲區文昌國小_校本部校區,臺中市大甲區育德路113號,120.6240692,24.34793854,臺中市,大甲區,國小
64668,市立順天國小,校本部校區,市立順天國小_校本部校區,臺中市大甲區經國路168號,120.6187134,24.34412766,臺中市,大甲區,國小
64669,市立文武國小,校本部校區,市立文武國小_校本部校區,臺中市大甲區武陵里文曲路61號,120.6008759,24.33629036,臺中市,大甲區,國小
64670,市立日南國小,校本部校區,市立日南國小_校本部校區,437 臺中市大甲區中山路二段568號,120.654892,24.39054871,臺中市,大甲區,國小
64671,市立東明國小,校本部校區,市立東明國小_校本部校區,臺中市大甲區幸福里東明路93號,120.6800003,24.375,臺中市,大甲區,國小
64672,市立華龍國小,校本部校區,市立華龍國小_校本部校區,臺中市大甲區日南里工二路1號,120.648056,24.40611076,臺中市,大甲區,國小
64673,市立西岐國小,校本部校區,市立西岐國小_校本部校區,臺中市大甲區西岐里順帆路96號,120.6290207,24.42089462,臺中市,大甲區,國小
64674,市立東陽國小,校本部校區,市立東陽國小_校本部校區,臺中市大甲區中山里甲東路520號,120.6289063,24.34103775,臺中市,大甲區,國小
64675,市立沙鹿國小,校本部校區,市立沙鹿國小_校本部校區,臺中市沙鹿區美仁里中正街3號,120.5615082,24.23518944,臺中市,沙鹿區,國小
64676,市立文光國小,文光國小,市立文光國小_文光國小,臺中市沙鹿區斗潭路文光巷12號,120.5562057,24.22633934,臺中市,沙鹿區,國小
64677,市立竹林國小,校本部校區,市立竹林國小_校本部校區,臺中市沙鹿區臺灣大道7段821號,120.5671387,24.23773384,臺中市,沙鹿區,國小
64678,市立沙鹿區北勢國小,校本部校區,市立沙鹿區北勢國小_校本部校區,臺中市沙鹿區六路里南陽路376號,120.5716782,24.21670151,臺中市,沙鹿區,國小
64679,市立公明國小,校本部校區,市立公明國小_校本部校區,臺中市沙鹿區公明里忠貞路213號,120.6087494,24.24376106,臺中市,沙鹿區,國小
64680,市立公?國小,校本部校區,市立公?國小_校本部校區,臺中市沙鹿區西勢里中航路2段1號,120.5958633,24.26029587,臺中市,沙鹿區,國小
64681,市立鹿峰國小,校本部校區,市立鹿峰國小_校本部校區,臺中市沙鹿區鹿峰里星河路209號,120.5706711,24.25631332,臺中市,沙鹿區,國小
64682,市立大安國小,校本部校區,市立大安國小_校本部校區,臺中市大安區中庄里中山南路296號,120.5883026,24.34519005,臺中市,大安區,國小
64683,市立三光國小,校本部校區,市立三光國小_校本部校區,臺中市大安區龜殼里中松路297號,120.6004944,24.35801315,臺中市,大安區,國小
64684,市立海墘國小,校本部校區,市立海墘國小_校本部校區,臺中市大安區大安港路1100號,120.5889969,24.37921143,臺中市,大安區,國小
64685,市立大安區永安國小,校本部校區,市立大安區永安國小_校本部校區,臺中市大安區永安里東西四路252號,120.6062775,24.38257599,臺中市,大安區,國小
64686,市立龍山國小,校本部校區,市立龍山國小_校本部校區,臺中市龍井區中山一路一段6號,120.5506821,24.21366882,臺中市,龍井區,國小
64687,市立龍井國小,校本部校區,市立龍井國小_校本部校區,434臺中市龍井區龍西里龍門路51號,120.5292969,24.18402672,臺中市,龍井區,國小
64688,市立龍津國小,校本部校區,市立龍津國小_校本部校區,434台中市龍井區中央路一段165巷50號,120.5217133,24.20121002,臺中市,龍井區,國小
64689,市立龍海國小,校本部校區,市立龍海國小_校本部校區,臺中市龍井區忠和里中央路3段206號,120.526825,24.21621513,臺中市,龍井區,國小
64690,市立龍港國小,校本部校區,市立龍港國小_校本部校區,臺中市龍井區麗水里三港路1號,120.5010223,24.19897652,臺中市,龍井區,國小
64691,市立龍泉國小,校本部校區,市立龍泉國小_校本部校區,台中市434龍井區龍泉里龍新路162號,120.5476913,24.19617844,臺中市,龍井區,國小
64692,市立龍峰國小,校本部校區,市立龍峰國小_校本部校區,434臺中市龍井區新庄里中沙路新庄仔巷2號,120.5762024,24.18089676,臺中市,龍井區,國小
64693,市立烏日國小,校本部校區,市立烏日國小_校本部校區,臺中市烏日區中山路二段196號,120.6236267,24.10768127,臺中市,烏日區,國小
64694,市立僑仁國小,校本部校區,市立僑仁國小_校本部校區,臺中市烏日區中山路一段341號,120.6405792,24.10772324,臺中市,烏日區,國小
64695,市立喀哩國小,螺潭校區,市立喀哩國小_螺潭校區,臺中市烏日區螺潭里溪南路二段370號,120.6426849,24.06167793,臺中市,烏日區,國小
64696,市立東園國小,校本部校區,市立東園國小_校本部校區,臺中市烏日區溪南路一段238巷198號,120.6398239,24.08397293,臺中市,烏日區,國小
64697,市立溪尾國小,校本部校區,市立溪尾國小_校本部校區,臺中市烏日區溪尾里溪岸路26號,120.639679,24.04111481,臺中市,烏日區,國小
64698,市立旭光國小,校本部校區,市立旭光國小_校本部校區,臺中市烏日區健行路501號,120.5978165,24.11420822,臺中市,烏日區,國小
64699,市立五光國小,校本部校區,市立五光國小_校本部校區,臺中市烏日區光明路40號,120.6469498,24.09443474,臺中市,烏日區,國小
64700,市立大肚國小,校本部校區,市立大肚國小_校本部校區,臺中市大肚區華山路77號,120.5463257,24.15458298,臺中市,大肚區,國小
64701,市立瑞峰國小,瑞峰校區,市立瑞峰國小_瑞峰校區,臺中市大肚區太平路1號,120.5741882,24.16854095,臺中市,大肚區,國小
64702,市立永順國小,校本部校區,市立永順國小_校本部校區,臺中市大肚區永順里文昌路2段586號,120.5330582,24.15853691,臺中市,大肚區,國小
64703,市立追分國小,校本部校區,市立追分國小_校本部校區,臺中市大肚區沙田路一段364號,120.5686188,24.12225342,臺中市,大肚區,國小
64704,市立大忠國小,校本部校區,市立大忠國小_校本部校區,臺中市大肚區沙田路一段854巷24號,120.5564346,24.13440895,臺中市,大肚區,國小
64705,市立大里國小,校本部校區,市立大里國小_校本部校區,臺中市大里區新興路50號,120.6773071,24.10044289,臺中市,大里區,國小
64706,市立內新國小,校本部校區,市立內新國小_校本部校區,臺中市大里區東昇里日新路8號,120.6958389,24.11181641,臺中市,大里區,國小
64707,市立崇光國小,校本部校區,市立崇光國小_校本部校區,臺中市大里區大明路181號,120.6845779,24.11429405,臺中市,大里區,國小
64708,市立塗城國小,校本部校區,市立塗城國小_校本部校區,臺中市大里區仁德里文化街120號,120.700943,24.09259224,臺中市,大里區,國小
64709,市立瑞城國小,校本部校區,市立瑞城國小_校本部校區,臺中市大里區瑞城里美村街196號,120.7029419,24.08627701,臺中市,大里區,國小
64710,市立健民國小,校本部校區,市立健民國小_校本部校區,臺中市大里區健民里校前路26號,120.7286911,24.08957481,臺中市,大里區,國小
64711,市立草湖國小,校本部校區,市立草湖國小_校本部校區,臺中市大里區西湖里西湖路32號,120.6902237,24.07857704,臺中市,大里區,國小
64712,市立霧峰國小,校本部校區,市立霧峰國小_校本部校區,臺中市霧峰區中正路736號,120.6984406,24.05710793,臺中市,霧峰區,國小
64713,市立僑榮國小,校本部校區,市立僑榮國小_校本部校區,臺中市霧峰區甲寅里民生路156號,120.7033157,24.06984901,臺中市,霧峰區,國小
64714,市立四德國小,校本部校區,市立四德國小_校本部校區,臺中市霧峰區四德路504號,120.6673355,24.06170273,臺中市,霧峰區,國小
64715,市立五福國小,校本部校區,市立五福國小_校本部校區,臺中市霧峰區新埔路239號,120.6673279,24.0734787,臺中市,霧峰區,國小
64716,市立萬豐國小,校本部校區,市立萬豐國小_校本部校區,41362臺中市霧峰區中正路 224號,120.6976395,24.02792931,臺中市,霧峰區,國小
64717,市立峰谷國小,校本部校區,市立峰谷國小_校本部校區,41363臺中市霧峰區峰谷里峰谷路496號,120.7248764,24.03531837,臺中市,霧峰區,國小
64718,市立桐林國小,校本部校區,市立桐林國小_校本部校區,臺中市霧峰區民生路675號,120.7358093,24.06573296,臺中市,霧峰區,國小
64719,市立復興國小,校本部校區,市立復興國小_校本部校區,臺中市霧峰區光復新村信義路50號,120.696846,24.04263115,臺中市,霧峰區,國小
64720,市立霧峰區光正國小,校本部校區,市立霧峰區光正國小_校本部校區,臺中市霧峰區北勢里豐正路566號,120.6687698,24.03670311,臺中市,霧峰區,國小
64721,太平區太平國民小學,校本部校區,太平區太平國民小學_校本部校區,臺中市太平區中興路35號,120.7176514,24.12782097,臺中市,太平區,國小
64722,市立宜欣國小,校本部校區,市立宜欣國小_校本部校區,臺中市太平區新平路二段100號,120.7152634,24.13918495,臺中市,太平區,國小
64723,市立新光國小,新建第一、二期校舍,市立新光國小_新建第一、二期校舍,臺中市太平區新興路200號,120.7063675,24.15979004,臺中市,太平區,國小
64724,市立坪林國小,校本部校區,市立坪林國小_校本部校區,臺中市太平區坪林路45號,120.7367554,24.14497566,臺中市,太平區,國小
64724,市立坪林國小,分校校區,市立坪林國小_分校校區,臺中市太平區坪林路45號,120.7566605,24.15688133,臺中市,太平區,國小
64725,市立光隆國小,校本部校區,市立光隆國小_校本部校區,臺中市太平區光隆里光興路487巷5號,120.7277145,24.1045475,臺中市,太平區,國小
64726,市立黃竹國小,校本部校區,市立黃竹國小_校本部校區,臺中市太平區竹村路41號,120.7526245,24.08348656,臺中市,太平區,國小
64727,市立頭汴國小,校本部校區,市立頭汴國小_校本部校區,臺中市太平區頭汴里北田路20號,120.7522888,24.12287903,臺中市,太平區,國小
64728,市立東汴國小,校本部校區,市立東汴國小_校本部校區,41150臺中市太平區東汴里山田路100號,120.7957916,24.11742592,臺中市,太平區,國小
64729,市立和平區和平國小,校本部校區,市立和平區和平國小_校本部校區,臺中市和平區南勢里東關路3段54號,120.8955536,24.17098618,臺中市,和平區,國小
64730,市立福民國小,校本部校區,市立福民國小_校本部校區,臺中市新社區福興里福民16之7號,120.8813934,24.16339111,臺中市,新社區,國小
64731,市立白冷國小,校本部校區,市立白冷國小_校本部校區,臺中市和平區天輪里天輪巷42號,120.9300995,24.1831646,臺中市,和平區,國小
64732,市立達觀國小,校本部校區,市立達觀國小_校本部校區,臺中市和平區達觀里東崎路一段育英巷6號,120.9209213,24.32798958,臺中市,和平區,國小
64733,市立中坑國小,校本部校區,市立中坑國小_校本部校區,臺中市和平區中坑里中坑巷41號,120.8799591,24.23658562,臺中市,東勢區,國小
64734,市立平等國小,校本部校區,市立平等國小_校本部校區,臺中市和平區中興路三段環山3巷35號,121.293045,24.3176136,臺中市,和平區,國小
64735,市立博愛國小,松鶴校區,市立博愛國小_松鶴校區,臺中市和平區博愛里松鶴三巷10號,120.9795532,24.1772213,臺中市,和平區,國小
64735,市立博愛國小,谷關校區,市立博愛國小_谷關校區,臺中市和平區博愛里松鶴三巷10號,121.0062561,24.201931,臺中市,和平區,國小
64736,市立自由國小,校本部校區,市立自由國小_校本部校區,臺中市和平區自由里東崎路二段49號,120.9089508,24.29138756,臺中市,和平區,國小
64736,市立自由國小,烏石校區,市立自由國小_烏石校區,臺中市和平區自由里東崎路二段49號,120.9350357,24.29306793,臺中市,和平區,國小
64738,市立益民國小,校本部校區,市立益民國小_校本部校區,臺中市大里區益民路二段48號,120.6874619,24.10746384,臺中市,大里區,國小
64739,市立?榔國小,校本部校區,市立?榔國小_校本部校區,臺中市清水區中央路23-12號,120.5458069,24.26421738,臺中市,清水區,國小
64740,市立建平國小,校本部校區,市立建平國小_校本部校區,臺中市太平區精美路201號,120.7245483,24.12412834,臺中市,太平區,國小
64741,市立潭陽國小,校本部校區,市立潭陽國小_校本部校區,臺中市潭子區潭陽路19號,120.710022,24.21244049,臺中市,潭子區,國小
64742,市立太平區中華國小,校本部校區,市立太平區中華國小_校本部校區,臺中市太平區大源路1-20號,120.7259827,24.14733696,臺中市,太平區,國小
64742,市立太平區中華國小,臺中市太平區中華國小,市立太平區中華國小_臺中市太平區中華國小,臺中市太平區大源路1-20號,120.7259674,24.14719391,臺中市,太平區,國小
64743,市立九德國小,校本部校區,市立九德國小_校本部校區,臺中市烏日區九德里長春街300號,120.6389236,24.10987854,臺中市,烏日區,國小
64744,市立中港國小,校本部校區,市立中港國小_校本部校區,臺中市梧棲區文明街100號,120.5552444,24.24061966,臺中市,梧棲區,國小
64745,市立東平國小,校本部校區,市立東平國小_校本部校區,臺中市太平區中興東路213號,120.7238312,24.13262939,臺中市,太平區,國小
64746,縣立文雅國小,校本部校區,縣立文雅國小_校本部校區,台中市大雅區中山北路235號,120.6460571,24.21951866,臺中市,大雅區,國小
64747,市立新盛國小,校本部校區,市立新盛國小_校本部校區,臺中市東勢區新盛里新盛街342號,120.8306046,24.2433548,臺中市,東勢區,國小
64748,市立大元國小,校本部校區,市立大元國小_校本部校區,臺中市大里區現岱路60號,120.6905365,24.10024834,臺中市,大里區,國小
64749,市立吉峰國小,校本部校區,市立吉峰國小_校本部校區,臺中市霧峰區吉峰里民生路349號,120.719101,24.0796032,臺中市,霧峰區,國小
64750,市立新平國小,校本部校區,市立新平國小_校本部校區,臺中市太平區樹孝路336巷9號,120.7201157,24.15472603,臺中市,太平區,國小
64751,市立葫蘆墩國小,校本部校區,市立葫蘆墩國小_校本部校區,420臺中市豐原區葫蘆墩一街250號,120.7143707,24.26107979,臺中市,豐原區,國小
64752,市立永隆國小,校本部校區,市立永隆國小_校本部校區,臺中市大里區永隆五街2號,120.6774139,24.11141586,臺中市,大里區,國小
64753,市立美群國小,校本部校區,市立美群國小_校本部校區,臺中市大里區美群路99號,120.7094803,24.08385849,臺中市,大里區,國小
64754,市立吳厝國小,校本部校區,市立吳厝國小_校本部校區,臺中市清水區吳厝里吳厝路35號,120.6028442,24.26722145,臺中市,清水區,國小
64755,市立山陽國小,校本部校區,市立山陽國小_校本部校區,臺中市大肚區榮華街630號,120.5446701,24.16347694,臺中市,大肚區,國小
64756,市立立新國小,校本部校區,市立立新國小_校本部校區,臺中市大里區立新街338號,120.6990204,24.10513115,臺中市,大里區,國小
64757,市立大德國小,校本部校區,市立大德國小_校本部校區,臺中市梧棲區大村里文昌路343號,120.5421371,24.24354172,臺中市,梧棲區,國小
64758,市立車籠埔國小,校本部校區,市立車籠埔國小_校本部校區,臺中市太平區光明路10-2號,120.7313766,24.10948372,臺中市,太平區,國小
64759,市立福陽國小,校本部校區,市立福陽國小_校本部校區,臺中市豐原區南陽路綠山巷83號,120.7360458,24.24227524,臺中市,豐原區,國小
64760,市立頭家國小,校本部校區,市立頭家國小_校本部校區,臺中市潭子區得福街185號,120.6955948,24.19683456,臺中市,潭子區,國小
64761,市立瑞井國小,校本部校區,市立瑞井國小_校本部校區,臺中市大肚區瑞井里華山路680號,120.5672073,24.15892792,臺中市,大肚區,國小
64762,市立東新國小,校本部校區,市立東新國小_校本部校區,423臺中市東勢區東新里東蘭路1-1號,120.8272705,24.26023674,臺中市,東勢區,國小
64764,市立長億國小,校本部校區,市立長億國小_校本部校區,臺中市太平區太平三街295號,120.7164078,24.11297035,臺中市,太平區,國小
64765,市立六寶國小,校本部校區,市立六寶國小_校本部校區,臺中市大雅區光復路15-2號,120.635643,24.23854446,臺中市,大雅區,國小
6.40E+02,縣立南陽國小補校,,縣立南陽國小補校_,臺中市豐原區中陽里南陽路440號,120.7237625,24.24874306,臺中市,豐原區,國小
6.40E+03,縣立富春國小補校,,縣立富春國小補校_,臺中市豐原區豐西里中山路455號,120.7132339,24.25193977,臺中市,豐原區,國小
6.40E+05,縣立清水國小補校,,縣立清水國小補校_,臺中市清水區光華路125號,120.5735016,24.26717949,臺中市,清水區,國小
6.40E+06,縣立內新國小補校,,縣立內新國小補校_,臺中市大里區東昇里新仁路二段42號,120.6958084,24.11165047,臺中市,大里區,國小
6.40E+08,縣立后里國小補校,,縣立后里國小補校_,臺中市后里區甲后路110號,120.7296753,24.30945587,臺中市,后里區,國小
6.40E+09,縣立神岡國小補校,,縣立神岡國小補校_,臺中市神岡區神岡里神圳路1號,120.6607819,24.25837898,臺中市,神岡區,國小
6.40E+10,縣立潭子國小補校,,縣立潭子國小補校_,臺中市潭子區中山路二段435號,120.7043991,24.21366692,臺中市,潭子區,國小
6.40E+11,縣立東勢國小補校,,縣立東勢國小補校_,臺中市東勢區廣興里第五橫街1號,120.8304596,24.25888634,臺中市,東勢區,國小
6.40E+13,縣立龍峰國小補校,,縣立龍峰國小補校_,臺中市龍井區新庄里中沙路2號,120.5760345,24.17954063,臺中市,龍井區,國小
6.40E+14,縣立大肚國小補校,,縣立大肚國小補校_,臺中市大肚區頂街里華山路77號,120.546814,24.15416336,臺中市,大肚區,國小
6.40E+15,縣立坪林國小補校,,縣立坪林國小補校_,臺中市太平區坪林里坪林路45號,120.7372971,24.14513588,臺中市,太平區,國小
6.40E+17,縣立大安國小補校,,縣立大安國小補校_,臺中市大安區中庄里中山南路296號,120.587738,24.34502029,臺中市,大安區,國小
6.40E+18,縣立大甲國小補校,,縣立大甲國小補校_,臺中市大甲區文武里育德路233號,120.6263657,24.35082626,臺中市,大甲區,國小
6.40E+20,縣立霧峰國小補校,,縣立霧峰國小補校_,臺中市霧峰區中正路736號,120.6986542,24.05716705,臺中市,霧峰區,國小
6.40E+23,縣立梧棲國小補校,,縣立梧棲國小補校_,臺中市梧棲區民生街45號,120.5311127,24.25306129,臺中市,梧棲區,國小
6.40E+25,縣立追分國小補校,,縣立追分國小補校_,臺中市大肚區沙田路一段364號,120.568222,24.12209892,臺中市,大肚區,國小
6.40E+26,縣立烏日國小補校,,縣立烏日國小補校_,臺中市烏日區中山路二段196號,120.6234436,24.10651016,臺中市,烏日區,國小
6.40E+27,縣立永寧國小補校,,縣立永寧國小補校_,臺中市梧棲區中央路一段160號,120.5322952,24.22927856,臺中市,梧棲區,國小
6.40E+29,縣立龍泉國小補校,,縣立龍泉國小補校_,臺中市龍井區龍泉里龍新路162號,120.5476685,24.19611549,臺中市,龍井區,國小
6.40E+31,縣立永安國小補校,,縣立永安國小補校_,臺中市大安區永安里東西四路252號,120.6062469,24.38233757,臺中市,大安區,國小
6.40E+32,縣立沙鹿國小補校,,縣立沙鹿國小補校_,臺中市沙鹿區美仁里中正街3號,120.5615158,24.23585892,臺中市,沙鹿區,國小
6.40E+33,縣立大雅國小補校,,縣立大雅國小補校_,臺中市大雅區三和里學府路230號,120.6499863,24.22215843,臺中市,大雅區,國小
74601,縣立中山國小,校本部校區,縣立中山國小_校本部校區,彰化縣彰化市中山路二段678號,120.5466232,24.0818367,彰化縣,彰化市,國小
74602,縣立民生國小,校本部校區,縣立民生國小_校本部校區,彰化縣彰化市民生路338號,120.5430756,24.08382034,彰化縣,彰化市,國小
74603,縣立平和國小,校本部校區,縣立平和國小_校本部校區,彰化縣彰化市西安里中正路二段450號,120.5351563,24.0724678,彰化縣,彰化市,國小
74603,縣立平和國小,平和國小校區,縣立平和國小_平和國小校區,彰化縣彰化市西安里中正路二段450號,120.5360031,24.0723381,彰化縣,彰化市,國小
74604,縣立南郭國小,校本部校區,縣立南郭國小_校本部校區,彰化縣彰化市彰化市中興路98號,120.5470276,24.07129097,彰化縣,彰化市,國小
74605,縣立南興國小,校本部校區,縣立南興國小_校本部校區,彰化縣彰化市南興里中山路一段213號,120.53405,24.05811501,彰化縣,彰化市,國小
74606,縣立東芳國小,東芳校區,縣立東芳國小_東芳校區,50083彰化縣彰化市彰馬路45號,120.5161133,24.06245804,彰化縣,彰化市,國小
74607,縣立泰和國小,校本部校區,縣立泰和國小_校本部校區,彰化縣彰化市泰和路二段145巷1號,120.5517426,24.09306717,彰化縣,彰化市,國小
74608,縣立三民國小,校本部校區,縣立三民國小_校本部校區,彰化市田中里田中路125號,120.6043091,24.08649063,彰化縣,彰化市,國小
74609,縣立聯興國小,校本部校區,縣立聯興國小_校本部校區,彰化縣彰化市牛埔里一心南街208號,120.5984421,24.07663727,彰化縣,彰化市,國小
74610,縣立大竹國小,校本部校區,縣立大竹國小_校本部校區,彰化縣彰化市彰南路2段164巷41號,120.580368,24.08266449,彰化縣,彰化市,國小
74611,縣立國聖國小,校本部校區,縣立國聖國小_校本部校區,彰化縣彰化市中山路3段608號,120.5685272,24.09209251,彰化縣,彰化市,國小
74612,縣立快官國小,校本部校區,縣立快官國小_校本部校區,彰化縣彰化市快官里彰南路四段566號,120.6120071,24.06854439,彰化縣,彰化市,國小
74613,縣立石牌國小,校本部校區,縣立石牌國小_校本部校區,彰化縣彰化市石牌里田坑路一段9號,120.6142731,24.05852699,彰化縣,彰化市,國小
74614,縣立忠孝國小,校本部校區,縣立忠孝國小_校本部校區,彰化縣彰化市忠誠路61號,120.532196,24.08423996,彰化縣,彰化市,國小
74615,縣立芬園國小,校本部校區,縣立芬園國小_校本部校區,彰化縣芬園鄉社口村彰南路四段27巷28號,120.6271667,24.0121212,彰化縣,芬園鄉,國小
74616,縣立富山國小,校本部校區,縣立富山國小_校本部校區,彰化縣芬園鄉大埔村大埔路6號,120.6194916,24.02719116,彰化縣,芬園鄉,國小
74617,縣立寶山國小,校本部校區,縣立寶山國小_校本部校區,彰化縣芬園鄉圳墘村彰南路二段36號,120.6400604,23.9868679,彰化縣,芬園鄉,國小
74618,縣立同安國小,校本部校區,縣立同安國小_校本部校區,彰化縣芬園鄉中崙村大彰路二段400巷36號,120.6210861,23.9776516,彰化縣,芬園鄉,國小
74619,縣立文德國小,校本部校區,縣立文德國小_校本部校區,彰化縣芬園鄉大竹村大彰路一段617號,120.6283264,23.96336365,彰化縣,芬園鄉,國小
74620,縣立茄荖國小,校本部校區,縣立茄荖國小_校本部校區,彰化縣芬園鄉茄荖村嘉北街96號,120.6434174,24.01533127,彰化縣,芬園鄉,國小
74621,縣立花壇國小,校本部校區,縣立花壇國小_校本部校區,彰化縣花壇鄉長沙村學前路108號,120.5432053,24.02631378,彰化縣,花壇鄉,國小
74622,縣立文祥國小,校本部校區,縣立文祥國小_校本部校區,彰化縣花壇鄉劉厝村明雅街131號,120.5262375,24.02554321,彰化縣,花壇鄉,國小
74623,縣立華南國小,校本部校區,縣立華南國小_校本部校區,彰化縣花壇鄉中庄村中橋街226號,120.5514069,24.01596069,彰化縣,花壇鄉,國小
74623,縣立華南國小,校本部校區,縣立華南國小_校本部校區,彰化縣花壇鄉中庄村中橋街226號,120.5512466,24.01623344,彰化縣,花壇鄉,國小
74624,縣立僑愛國小,校本部校區,縣立僑愛國小_校本部校區,503 彰化縣花壇鄉中口村中山路二段471號,120.534729,24.03857803,彰化縣,花壇鄉,國小
74625,縣立三春國小,校本部校區,縣立三春國小_校本部校區,彰化縣花壇鄉三春村三芬路47號,120.56633,24.01622963,彰化縣,花壇鄉,國小
74626,縣立白沙國小,校本部校區,縣立白沙國小_校本部校區,彰化縣花壇鄉白沙村彰員路三段225號,120.5450745,24.0477562,彰化縣,花壇鄉,國小
74627,縣立和美國小,校本部校區,縣立和美國小_校本部校區,彰化縣和美鎮和西里和平街19號,120.4957809,24.11171913,彰化縣,和美鎮,國小
74628,縣立和東國小,校本部校區,縣立和東國小_校本部校區,彰化縣和美鎮和東里彰美路五段210號,120.5014496,24.10925484,彰化縣,和美鎮,國小
74629,縣立大嘉國小,校本部校區,縣立大嘉國小_校本部校區,彰化縣和美鎮彰和路三段50號,120.5119934,24.09672546,彰化縣,和美鎮,國小
74630,縣立大榮國小,校本部校區,縣立大榮國小_校本部校區,彰化縣和美鎮嘉佃路296號,120.5018616,24.08807373,彰化縣,和美鎮,國小
74631,縣立新庄國小,校本部校區,縣立新庄國小_校本部校區,彰化縣和美鎮彰新路二段500號,120.5344162,24.1043663,彰化縣,和美鎮,國小
74632,縣立培英國小,校本部校區,縣立培英國小_校本部校區,彰化縣和美鎮塗厝里彰新路五段310號,120.5113068,24.13481522,彰化縣,和美鎮,國小
74633,縣立線西國小,校本部校區,縣立線西國小_校本部校區,彰化縣線西鄉寓埔村中央路2段135號,120.4697113,24.13126945,彰化縣,線西鄉,國小
74634,縣立曉陽國小,校本部校區,縣立曉陽國小_校本部校區,彰化縣線西鄉頂犁村頂犁路158之1號,120.478714,24.12116051,彰化縣,線西鄉,國小
74635,縣立新港國小,校本部校區,縣立新港國小_校本部校區,彰化縣伸港鄉和平路60號,120.485054,24.14876175,彰化縣,伸港鄉,國小
74636,縣立伸東國小,校本部校區,縣立伸東國小_校本部校區,彰化縣伸港鄉七嘉村中華路565號,120.4956818,24.14600372,彰化縣,伸港鄉,國小
74637,縣立伸仁國小,校本部校區,縣立伸仁國小_校本部校區,彰化縣伸港鄉曾家村曾家路3之15號,120.4764328,24.14731407,彰化縣,伸港鄉,國小
74638,縣立大同國小,校本部校區,縣立大同國小_校本部校區,彰化縣伸港鄉大同村彰新路七段724號,120.4919052,24.15997887,彰化縣,伸港鄉,國小
74639,縣立鹿港國小,校本部校區,縣立鹿港國小_校本部校區,彰化縣鹿港鎮菜園里三民路192號,120.4336929,24.05121231,彰化縣,鹿港鎮,國小
74640,縣立文開國小,校本部校區,縣立文開國小_校本部校區,彰化縣鹿港鎮新宮里文開路60號,120.4302368,24.05719185,彰化縣,鹿港鎮,國小
74641,縣立洛津國小,校本部校區,縣立洛津國小_校本部校區,彰化縣鹿港鎮洛津里公園三路51號,120.4306412,24.0545311,彰化縣,鹿港鎮,國小
74642,縣立海埔國小,校本部校區,縣立海埔國小_校本部校區,彰化縣鹿港鎮海埔里鹿草路二段889號,120.4442825,24.08392715,彰化縣,鹿港鎮,國小
74643,縣立新興國小,校本部校區,縣立新興國小_校本部校區,彰化縣鹿港鎮詔安里某旦巷85號,120.4570541,24.07256508,彰化縣,鹿港鎮,國小
74644,縣立草港國小,校本部校區,縣立草港國小_校本部校區,彰化縣鹿港鎮草中里頂草路四段251號,120.4608536,24.10648727,彰化縣,鹿港鎮,國小
74645,縣立頂番國小,校本部校區,縣立頂番國小_校本部校區,彰化縣鹿港鎮頂草路一段100號,120.4801941,24.08794975,彰化縣,鹿港鎮,國小
74646,縣立東興國小,校本部校區,縣立東興國小_校本部校區,彰化縣鹿港鎮東崎里東崎7巷52號,120.4753799,24.05763817,彰化縣,鹿港鎮,國小
74647,縣立管嶼國小,校本部校區,縣立管嶼國小_校本部校區,彰化縣福興鄉廈粘村沿海路三段100號,120.4128113,24.02812958,彰化縣,福興鄉,國小
74648,縣立文昌國小,校本部校區,縣立文昌國小_校本部校區,彰化縣福興鄉鎮平村鎮平街1號,120.4190979,24.00806236,彰化縣,福興鄉,國小
74649,縣立西勢國小,校本部校區,縣立西勢國小_校本部校區,彰化縣福興鄉西勢村員鹿路二段412號,120.4372711,24.04403305,彰化縣,福興鄉,國小
74650,縣立大興國小,校本部校區,縣立大興國小_校本部校區,彰化縣福興鄉外埔村復興路15號,120.4736176,24.02667046,彰化縣,福興鄉,國小
74651,縣立永豐國小,校本部校區,縣立永豐國小_校本部校區,彰化縣福興鄉番社村80號,120.4551544,24.02564049,彰化縣,福興鄉,國小
74652,縣立日新國小,校本部校區,縣立日新國小_校本部校區,彰化縣福興鄉番婆村彰鹿路六段546號,120.4594879,24.0462265,彰化縣,福興鄉,國小
74653,縣立育新國小,校本部校區,縣立育新國小_校本部校區,彰化縣福興鄉二港村福正路4號,120.413063,24.04137421,彰化縣,福興鄉,國小
74653,縣立育新國小,校本部校區,縣立育新國小_校本部校區,彰化縣福興鄉二港村福正路4號,120.4130707,24.0413723,彰化縣,福興鄉,國小
74654,彰化縣秀水鄉秀水國民小學,校本部校區,彰化縣秀水鄉秀水國民小學_校本部校區,彰化縣秀水鄉安東村中山路257號,120.502655,24.03486633,彰化縣,秀水鄉,國小
74655,縣立馬興國小,馬興校區,縣立馬興國小_馬興校區,彰化縣秀水鄉馬興村培英巷1號,120.4969788,24.06215668,彰化縣,秀水鄉,國小
74656,縣立華龍國小,校本部校區,縣立華龍國小_校本部校區,彰化縣秀水鄉秀水村花秀路51號,120.5141678,24.0380497,彰化縣,秀水鄉,國小
74657,縣立明正國小,校本部校區,縣立明正國小_校本部校區,504 彰化縣秀水鄉埔崙村彰水路二段341號,120.4927292,24.02672386,彰化縣,秀水鄉,國小
74658,縣立陝西國小,校本部校區,縣立陝西國小_校本部校區,彰化縣秀水鄉金興村番花路261號,120.5174637,24.01201439,彰化縣,秀水鄉,國小
74659,縣立育民國小,校本部校區,縣立育民國小_校本部校區,彰化縣秀水鄉下崙村民生街262號,120.5055923,24.00434303,彰化縣,秀水鄉,國小
74660,縣立溪湖國小,校本部校區,縣立溪湖國小_校本部校區,彰化縣溪湖鎮二溪路一段35號,120.4785309,23.95923042,彰化縣,溪湖鎮,國小
74661,縣立東溪國小,校本部校區,縣立東溪國小_校本部校區,彰化縣溪湖鎮東溪里員鹿路一段538號,120.4980011,23.95412827,彰化縣,溪湖鎮,國小
74662,縣立湖西國小,校本部校區,縣立湖西國小_校本部校區,彰化縣溪湖鎮大突里北聖路20號,120.4677048,23.95996666,彰化縣,溪湖鎮,國小
74663,縣立湖東國小,校本部校區,縣立湖東國小_校本部校區,彰化縣溪湖鎮湖東里大溪路二段423號,120.4834442,23.96379662,彰化縣,溪湖鎮,國小
74664,縣立湖南國小,校本部校區,縣立湖南國小_校本部校區,彰化縣溪湖鎮大竹里彰水路二段725號,120.4801636,23.95004463,彰化縣,溪湖鎮,國小
74665,縣立媽厝國小,校本部校區,縣立媽厝國小_校本部校區,彰化縣溪湖鎮媽厝里湳底路67號,120.4960251,23.94118309,彰化縣,溪湖鎮,國小
74666,縣立埔鹽國小,校本部校區,縣立埔鹽國小_校本部校區,彰化縣埔鹽鄉埔南村彰水路一段252號,120.4780121,23.99294281,彰化縣,埔鹽鄉,國小
74667,縣立大園國小,校本部校區,縣立大園國小_校本部校區,彰化縣埔鹽鄉豐澤村埔打路45之1號,120.4882507,23.97978592,彰化縣,埔鹽鄉,國小
74668,縣立南港國小,校本部校區,縣立南港國小_校本部校區,彰化縣埔鹽鄉南港村埔菜路29之2號,120.4957733,23.98797607,彰化縣,埔鹽鄉,國小
74669,縣立好修國小,校本部校區,縣立好修國小_校本部校區,彰化縣埔鹽鄉好修村員鹿路二段149號,120.4595566,24.00721169,彰化縣,埔鹽鄉,國小
74670,縣立永樂國小,校本部校區,縣立永樂國小_校本部校區,彰化縣埔鹽鄉永樂村永樂路600號,120.4314499,24.0003624,彰化縣,埔鹽鄉,國小
74671,縣立新水國小,校本部校區,縣立新水國小_校本部校區,彰化縣埔鹽鄉新水村大新路1巷15號,120.4427872,23.98528099,彰化縣,埔鹽鄉,國小
74672,縣立天盛國小,校本部校區,縣立天盛國小_校本部校區,彰化縣埔鹽鄉天盛村番金路68之1號,120.4287872,23.98499107,彰化縣,埔鹽鄉,國小
74673,縣立埔心國小,校本部校區,縣立埔心國小_校本部校區,彰化縣埔心鄉義民村員鹿路二段254號,120.5453262,23.95334435,彰化縣,埔心鄉,國小
74674,縣立太平國小,校本部校區,縣立太平國小_校本部校區,彰化縣埔心鄉太平村太平路289號,120.5529556,23.93786812,彰化縣,埔心鄉,國小
74675,縣立舊館國小,校本部校區,縣立舊館國小_校本部校區,彰化縣埔心鄉舊館村員鹿路四段201號,120.5258102,23.94767952,彰化縣,埔心鄉,國小
74676,縣立羅厝國小,校本部校區,縣立羅厝國小_校本部校區,彰化縣埔心鄉羅厝村文昌東路100號,120.5130768,23.9420681,彰化縣,埔心鄉,國小
74677,縣立鳳霞國小,校本部校區,縣立鳳霞國小_校本部校區,彰化縣埔心鄉二重村五通南路82號,120.5257263,23.97002792,彰化縣,埔心鄉,國小
74678,縣立梧鳳國小,校本部校區,縣立梧鳳國小_校本部校區,彰化縣埔心鄉梧鳳村大溪路175號,120.5124817,23.96994209,彰化縣,埔心鄉,國小
74679,縣立明聖國小,校本部校區,縣立明聖國小_校本部校區,彰化縣埔心鄉瓦北村西安南路178號,120.5575638,23.95118141,彰化縣,埔心鄉,國小
74680,縣立員林國小,校本部校區,縣立員林國小_校本部校區,彰化縣員林鎮三和里三民東街221號,120.5787277,23.96038628,彰化縣,員林鎮,國小
74681,縣立育英國小,校本部校區,縣立育英國小_校本部校區,彰化縣員林市黎明里光明街31號,120.5741119,23.95271111,彰化縣,員林鎮,國小
74682,縣立靜修國小,校本部校區,縣立靜修國小_校本部校區,彰化縣員林鎮南平里靜修路74號,120.5655289,23.96252823,彰化縣,員林鎮,國小
74683,縣立僑信國小,校本部校區,縣立僑信國小_校本部校區,彰化縣員林市三信里中山路二段280號,120.5716095,23.96702957,彰化縣,員林鎮,國小
74684,縣立員東國小,校本部校區,縣立員東國小_校本部校區,彰化縣員林市員東路二段12號,120.587326,23.96221924,彰化縣,員林鎮,國小
74685,縣立饒明國小,校本部校區,縣立饒明國小_校本部校區,彰化縣員林鎮中央里員集路二段131號,120.5756226,23.93915749,彰化縣,員林鎮,國小
74686,縣立東山國小,校本部校區,縣立東山國小_校本部校區,彰化縣員林鎮南東里山腳路四段212號,120.6017914,23.96794128,彰化縣,員林鎮,國小
74687,縣立青山國小,校本部校區,縣立青山國小_校本部校區,彰化縣員林市出水里泉洲巷3號,120.6020966,23.94443512,彰化縣,員林鎮,國小
74688,縣立明湖國小,校本部校區,縣立明湖國小_校本部校區,彰化縣員林市湖水里湖水路277號,120.6159439,23.95287514,彰化縣,員林鎮,國小
74689,縣立大村國小,校本部校區,縣立大村國小_校本部校區,彰化縣大村鄉大村村中正西路381號,120.5454102,23.99372292,彰化縣,大村鄉,國小
74690,縣立大西國小,校本部校區,縣立大西國小_校本部校區,彰化縣大村鄉大崙村大崙路10之55號,120.5249786,23.98517799,彰化縣,大村鄉,國小
74691,縣立村上國小,校本部校區,縣立村上國小_校本部校區,彰化縣大村鄉村上村中山路二段242號,120.5655594,23.98888588,彰化縣,大村鄉,國小
74692,縣立村東國小,校本部校區,縣立村東國小_校本部校區,彰化縣大村鄉福興村山腳路102之1號,120.5854416,23.99354172,彰化縣,大村鄉,國小
74693,縣立永靖國小,校本部校區,縣立永靖國小_校本部校區,彰化縣永靖鄉永東村中山路二段65號,120.5480194,23.92063713,彰化縣,永靖鄉,國小
74694,縣立福德國小,校本部校區,縣立福德國小_校本部校區,彰化縣永靖鄉永南村福德巷36號,120.5414124,23.91478539,彰化縣,永靖鄉,國小
74695,縣立永興國小,永興國小,縣立永興國小_永興國小,彰化縣永靖鄉東寧村永興路二段32號,120.566864,23.92546082,彰化縣,永靖鄉,國小
74696,縣立福興國小,校本部校區,縣立福興國小_校本部校區,彰化縣永靖鄉福興村永福路二段160號,120.5226288,23.91992378,彰化縣,永靖鄉,國小
74697,縣立德興國小,校本部校區,縣立德興國小_校本部校區,彰化縣永靖鄉竹子村竹後巷47號,120.503212,23.92991257,彰化縣,永靖鄉,國小
74698,縣立田中國小,校本部校區,縣立田中國小_校本部校區,彰化縣田中鎮南路里中州路177號,120.5875015,23.85732841,彰化縣,田中鎮,國小
74699,縣立三潭國小,校本部校區,縣立三潭國小_校本部校區,彰化縣田中鎮北路里中正路715號,120.584877,23.86608315,彰化縣,田中鎮,國小
74700,縣立大安國小,三安校區,縣立大安國小_三安校區,彰化縣田中鎮三安里大安路1段200號,120.5944214,23.84064102,彰化縣,田中鎮,國小
74701,縣立內安國小,校本部校區,縣立內安國小_校本部校區,彰化縣田中鎮新庄里中南路三段54號,120.5997314,23.85368729,彰化縣,田中鎮,國小
74702,縣立東和國小,校本部校區,縣立東和國小_校本部校區,彰化縣田中鎮復興里山腳路四段188巷109號,120.6062317,23.86748123,彰化縣,田中鎮,國小
74703,縣立明禮國小,明禮校區,縣立明禮國小_明禮校區,彰化縣田中鎮三光里民光路一段394號,120.5667648,23.87664986,彰化縣,田中鎮,國小
74704,縣立社頭國小,校本部校區,縣立社頭國小_校本部校區,彰化縣社頭鄉社頭村社斗路一段258號,120.5865631,23.89750099,彰化縣,社頭鄉,國小
74705,縣立橋頭國小,校本部校區,縣立橋頭國小_校本部校區,彰化縣社頭鄉橋頭村員集路三段528號,120.5826569,23.91886139,彰化縣,社頭鄉,國小
74706,縣立朝興國小,校本部校區,縣立朝興國小_校本部校區,彰化縣社頭鄉朝興村社石路91號,120.6064911,23.90832329,彰化縣,社頭鄉,國小
74707,縣立清水國小,校本部校區,縣立清水國小_校本部校區,彰化縣社頭鄉山腳路一段486號,120.6100235,23.88949585,彰化縣,社頭鄉,國小
74708,縣立湳雅國小,校本部校區,縣立湳雅國小_校本部校區,彰化縣社頭鄉湳雅村山腳路三段395號,120.6028671,23.92045021,彰化縣,社頭鄉,國小
74709,縣立二水國小,校本部校區,縣立二水國小_校本部校區,彰化縣二水鄉文化村光文路119號,120.6178513,23.81077194,彰化縣,二水鄉,國小
74710,縣立復興國小,校本部校區,縣立復興國小_校本部校區,彰化縣二水鄉復興村員集路五段472號,120.6047668,23.82955551,彰化縣,二水鄉,國小
74711,縣立源泉國小,校本部校區,縣立源泉國小_校本部校區,彰化縣二水鄉大園村員集路二段316號,120.6425858,23.80045319,彰化縣,二水鄉,國小
74712,縣立北斗國小,新政校區,縣立北斗國小_新政校區,彰化縣北斗鎮新政里文苑路一段32號,120.5233765,23.87574768,彰化縣,北斗鎮,國小
74713,縣立萬來國小,校本部校區,縣立萬來國小_校本部校區,彰化縣北斗鎮西德里文賢街35號,120.522049,23.87028694,彰化縣,北斗鎮,國小
74714,縣立螺青國小,校本部校區,縣立螺青國小_校本部校區,彰化縣北斗鎮東光里斗中路712號,120.5345993,23.87109184,彰化縣,北斗鎮,國小
74715,縣立大新國小,校本部校區,縣立大新國小_校本部校區,彰化縣北斗鎮大新里大新路556號,120.5572357,23.85494995,彰化縣,北斗鎮,國小
74716,縣立螺陽國小,校本部校區,縣立螺陽國小_校本部校區,彰化縣北斗鎮西安里斗苑路二段150號,120.5147171,23.87623978,彰化縣,北斗鎮,國小
74717,縣立田尾國小,校本部校區,縣立田尾國小_校本部校區,彰化縣田尾鄉饒平村中山路一段449號,120.5285873,23.89187813,彰化縣,田尾鄉,國小
74718,縣立南鎮國小,校本部校區,縣立南鎮國小_校本部校區,彰化縣田尾鄉南鎮村光復路一段295號,120.5606995,23.88653374,彰化縣,田尾鄉,國小
74719,縣立陸豐國小,校本部校區,縣立陸豐國小_校本部校區,彰化縣田尾鄉陸豐村民生路三段200號,120.505043,23.91734505,彰化縣,田尾鄉,國小
74720,縣立仁豐國小,校本部校區,縣立仁豐國小_校本部校區,彰化縣田尾鄉新厝村中正路二段101號,120.5082245,23.9025135,彰化縣,田尾鄉,國小
74721,縣立埤頭國小,校本部校區,縣立埤頭國小_校本部校區,彰化縣埤頭鄉埤頭村中南路145號,120.4776535,23.89313698,彰化縣,埤頭鄉,國小
74722,縣立合興國小,校本部校區,縣立合興國小_校本部校區,彰化縣埤頭鄉合興村文鄉路161號,120.4588013,23.89389801,彰化縣,埤頭鄉,國小
74723,縣立豐崙國小,校本部校區,縣立豐崙國小_校本部校區,彰化縣埤頭鄉豐崙村校前路50號,120.4601288,23.91730499,彰化縣,埤頭鄉,國小
74724,縣立芙朝國小,校本部校區,縣立芙朝國小_校本部校區,彰化縣埤頭鄉芙朝村芙朝路205號,120.4808884,23.87007523,彰化縣,埤頭鄉,國小
74725,縣立中和國小,校本部校區,縣立中和國小_校本部校區,彰化縣埤頭鄉中和村溪林路284號,120.4603424,23.84738731,彰化縣,埤頭鄉,國小
74726,縣立大湖國小,校本部校區,縣立大湖國小_校本部校區,彰化縣埤頭鄉大湖村大湖路260號,120.4527512,23.86591339,彰化縣,埤頭鄉,國小
74727,縣立溪州國小,校本部校區,縣立溪州國小_校本部校區,彰化縣溪州鄉尾厝村中山路三段451號,120.4974747,23.85349464,彰化縣,溪州鄉,國小
74728,縣立僑義國小,校本部校區,縣立僑義國小_校本部校區,彰化縣溪州鄉溪厝村中山路二段326號,120.4791336,23.84420776,彰化縣,溪州鄉,國小
74729,縣立三條國小,校本部校區,縣立三條國小_校本部校區,彰化縣溪州鄉三條村中央路二段31號,120.4945374,23.82688141,彰化縣,溪州鄉,國小
74730,縣立水尾國小,校本部校區,縣立水尾國小_校本部校區,彰化縣溪州鄉水尾村太平路137號,120.4716339,23.83186531,彰化縣,溪州鄉,國小
74731,縣立潮洋國小,校本部校區,縣立潮洋國小_校本部校區,彰化縣溪州鄉陸軍路一段146號,120.5194778,23.81425285,彰化縣,溪州鄉,國小
74732,縣立成功國小,校本部校區,縣立成功國小_校本部校區,彰化縣溪州鄉成功村登山路二段365號,120.5448227,23.82606316,彰化縣,溪州鄉,國小
74732,縣立成功國小,西畔校區,縣立成功國小_西畔校區,彰化縣溪州鄉成功村登山路二段365號,120.5403137,23.84782791,彰化縣,溪州鄉,國小
74733,縣立圳寮國小,校本部校區,縣立圳寮國小_校本部校區,彰化縣溪州鄉圳寮村下樹巷29號,120.5229263,23.83907509,彰化縣,溪州鄉,國小
74734,縣立大莊國小,校本部校區,縣立大莊國小_校本部校區,彰化縣溪州鄉大庄村中橫巷1號,120.5674973,23.81611061,彰化縣,溪州鄉,國小
74735,縣立南州國小,校本部校區,縣立南州國小_校本部校區,彰化縣溪州鄉溪州村公園路95號,120.4909134,23.85299683,彰化縣,溪州鄉,國小
74736,縣立二林國小,校本部校區,縣立二林國小_校本部校區,彰化縣二林鎮東和里斗苑路五段22號,120.371582,23.89991951,彰化縣,二林鎮,國小
74737,縣立興華國小,校本部校區,縣立興華國小_校本部校區,彰化縣二林鎮東興里竹林路3段393號,120.3952942,23.8915062,彰化縣,二林鎮,國小
74738,縣立中正國小,校本部校區,縣立中正國小_校本部校區,彰化縣二林鎮南光里建興街80號,120.3707504,23.89761925,彰化縣,二林鎮,國小
74739,縣立育德國小,校本部校區,縣立育德國小_校本部校區,彰化縣二林鎮外竹里中南巷41之1號,120.386879,23.87467957,彰化縣,二林鎮,國小
74740,縣立香田國小,校本部校區,縣立香田國小_校本部校區,彰化縣二林鎮香田里儒林路10之1號,120.3761139,23.87444115,彰化縣,二林鎮,國小
74741,縣立廣興國小,校本部校區,縣立廣興國小_校本部校區,彰化縣二林鎮廣興里廣興巷2之1號,120.3627701,23.87584877,彰化縣,二林鎮,國小
74742,縣立萬興國小,校本部校區,縣立萬興國小_校本部校區,彰化縣二林鎮永興里中央南街2號,120.4193573,23.9540863,彰化縣,二林鎮,國小
74743,縣立新生國小,校本部校區,縣立新生國小_校本部校區,彰化縣二林鎮趙甲里鎮平巷59號,120.3948822,23.93752289,彰化縣,二林鎮,國小
74744,縣立中興國小,校本部校區,縣立中興國小_校本部校區,彰化縣二林鎮華菕里光復路73號,120.442688,23.94785309,彰化縣,二林鎮,國小
74745,縣立原斗國小,校本部校區,縣立原斗國小_校本部校區,彰化縣二林鎮原斗里斗苑路一段865號,120.4270325,23.8962822,彰化縣,二林鎮,國小
74746,縣立萬合國小,校本部校區,縣立萬合國小_校本部校區,彰化縣二林鎮萬合里江山巷1號,120.4095535,23.92538834,彰化縣,二林鎮,國小
74747,縣立大城國小,校本部校區,縣立大城國小_校本部校區,彰化縣大城鄉大城村中平路176號,120.320343,23.85301971,彰化縣,大城鄉,國小
74748,縣立永光國小,校本部校區,縣立永光國小_校本部校區,彰化縣大城鄉公館村青埔路7之8號,120.3026657,23.84025002,彰化縣,大城鄉,國小
74749,縣立西港國小,校本部校區,縣立西港國小_校本部校區,彰化縣大城鄉東港村中央路2號,120.288887,23.86138916,彰化縣,大城鄉,國小
74750,縣立美豐國小,校本部校區,縣立美豐國小_校本部校區,彰化縣大城鄉三豐村東盛路1號,120.3021851,23.88518333,彰化縣,大城鄉,國小
74751,縣立頂庄國小,校本部校區,縣立頂庄國小_校本部校區,彰化縣大城鄉頂庄村東厝路63之1號,120.2847595,23.84869957,彰化縣,大城鄉,國小
74752,縣立潭墘國小,校本部校區,縣立潭墘國小_校本部校區,彰化縣大城鄉潭墘村潭城路1號,120.3478088,23.83569717,彰化縣,大城鄉,國小
74753,縣立竹塘國小,校本部校區,縣立竹塘國小_校本部校區,彰化縣竹塘鄉竹塘村文化街20號,120.4288483,23.8612709,彰化縣,竹塘鄉,國小
74754,縣立田頭國小,校本部校區,縣立田頭國小_校本部校區,彰化縣竹塘鄉田頭村光明路60號,120.4492798,23.83708763,彰化縣,竹塘鄉,國小
74755,縣立民靖國小,校本部校區,縣立民靖國小_校本部校區,彰化縣竹塘鄉文昌路152號,120.4162598,23.87583733,彰化縣,竹塘鄉,國小
74756,縣立長安國小,校本部校區,縣立長安國小_校本部校區,彰化縣竹塘鄉長安村東陽路二段123號,120.3869171,23.84787178,彰化縣,竹塘鄉,國小
74757,縣立土庫國小,校本部校區,縣立土庫國小_校本部校區,彰化縣竹塘鄉土庫村東陽路一段362號,120.4095078,23.85001755,彰化縣,竹塘鄉,國小
74758,縣立芳苑國小,校本部校區,縣立芳苑國小_校本部校區,彰化縣芳苑鄉芳苑村斗苑路芳苑段230號,120.3189926,23.92559052,彰化縣,芳苑鄉,國小
74759,縣立後寮國小,校本部校區,縣立後寮國小_校本部校區,彰化縣芳苑鄉後寮村芳寮路30號,120.3417511,23.92085075,彰化縣,芳苑鄉,國小
